$GPGGA,135139.087,,,,,0,0,,,M,,M,,*4B
$GPGSA,A,1,,,,,,,,,,,,,,,*1E
$GPGSV,2,1,05,30,,,39,28,,,42,20,,,18,13,,,38*78
$GPGSV,2,2,05,05,,,42*7F
$GPRMC,135139.087,V,,,,,0.00,0.00,090216,,,N*42
$GPVTG,0.00,T,,M,0.00,N,0.00,K,N*32
$GPGGA,135140.087,,,,,0,0,,,M,,M,,*45
$GPGSA,A,1,,,,,,,,,,,,,,,*1E
$GPRMC,135140.087,V,,,,,0.00,0.00,090216,,,N*4C
$GPVTG,0.00,T,,M,0.00,N,0.00,K,N*32
$GPGGA,135141.087,,,,,0,0,,,M,,M,,*44
$GPGSA,A,1,,,,,,,,,,,,,,,*1E
$GPRMC,135141.087,V,,,,,0.00,0.00,090216,,,N*4D
$GPVTG,0.00,T,,M,0.00,N,0.00,K,N*32
$GPGGA,135142.087,,,,,0,0,,,M,,M,,*47
$GPGSA,A,1,,,,,,,,,,,,,,,*1E
$GPRMC,135142.087,V,,,,,0.00,0.00,090216,,,N*4E
$GPVTG,0.00,T,,M,0.00,N,0.00,K,N*32
$GPGGA,135143.087,,,,,0,0,,,M,,M,,*46
$GPGSA,A,1,,,,,,,,,,,,,,,*1E
$GPRMC,135143.087,V,,,,,0.00,0.00,090216,,,N*4F
$GPVTG,0.00,T,,M,0.00,N,0.00,K,N*32
$GPGGA,135144.087,,,,,0,0,,,M,,M,,*41
$GPGSA,A,1,,,,,,,,,,,,,,,*1E
$GPGSV,2,1,05,30,,,40,28,,,42,15,,,30,13,,,39*7B
$GPGSV,2,2,05,05,,,38*72
$GPRMC,135144.087,V,,,,,0.00,0.00,090216,,,N*48
$GPVTG,0.00,T,,M,0.00,N,0.00,K,N*32
$GPGGA,135145.087,,,,,0,0,,,M,,M,,*40
$GPGSA,A,1,,,,,,,,,,,,,,,*1E
$GPRMC,135145.087,V,,,,,0.00,0.00,090216,,,N*49
$GPVTG,0.00,T,,M,0.00,N,0.00,K,N*32
$GPGGA,135146.087,,,,,0,0,,,M,,M,,*43
$GPGSA,A,1,,,,,,,,,,,,,,,*1E
$GPRMC,135146.087,V,,,,,0.00,0.00,090216,,,N*4A
$GPVTG,0.00,T,,M,0.00,N,0.00,K,N*32
$GPGGA,135147.087,,,,,0,0,,,M,,M,,*42
$GPGSA,A,1,,,,,,,,,,,,,,,*1E
$GPRMC,135147.087,V,,,,,0.00,0.00,090216,,,N*4B
$GPVTG,0.00,T,,M,0.00,N,0.00,K,N*32
$GPGGA,135148.087,,,,,0,0,,,M,,M,,*4D
$GPGSA,A,1,,,,,,,,,,,,,,,*1E
$GPRMC,135148.087,V,,,,,0.00,0.00,090216,,,N*44
$GPVTG,0.00,T,,M,0.00,N,0.00,K,N*32
$GPGGA,135149.087,,,,,0,0,,,M,,M,,*4C
$GPGSA,A,1,,,,,,,,,,,,,,,*1E
$GPGSV,2,1,05,30,,,41,28,,,41,15,,,25,13,,,35*71
$GPGSV,2,2,05,05,,,39*73
$GPRMC,135149.087,V,,,,,0.00,0.00,090216,,,N*45
$GPVTG,0.00,T,,M,0.00,N,0.00,K,N*32
$GPGGA,135150.087,,,,,0,0,,,M,,M,,*44
$GPGSA,A,1,,,,,,,,,,,,,,,*1E
$GPRMC,135150.087,V,,,,,0.00,0.00,090216,,,N*4D
$GPVTG,0.00,T,,M,0.00,N,0.00,K,N*32
$GPGGA,135151.087,,,,,0,0,,,M,,M,,*45
$GPGSA,A,1,,,,,,,,,,,,,,,*1E
$GPRMC,135151.087,V,,,,,0.00,0.00,090216,,,N*4C
$GPVTG,0.00,T,,M,0.00,N,0.00,K,N*32
$GPGGA,135151.301,,,,,0,0,,,M,,M,,*48
$GPGSA,A,1,,,,,,,,,,,,,,,*1E
$GPRMC,135151.301,V,,,,,0.00,0.00,090216,,,N*41
$GPVTG,0.00,T,,M,0.00,N,0.00,K,N*32
$GPGGA,135152.301,,,,,0,0,,,M,,M,,*4B
$GPGSA,A,1,,,,,,,,,,,,,,,*1E
$GPRMC,135152.301,V,,,,,0.00,0.00,090216,,,N*42
$GPVTG,0.00,T,,M,0.00,N,0.00,K,N*32
$GPGGA,135153.301,,,,,0,0,,,M,,M,,*4A
$GPGSA,A,1,,,,,,,,,,,,,,,*1E
$GPGSV,2,1,05,30,,,41,28,,,40,13,,,38,07,,,38*72
$GPGSV,2,2,05,05,,,38*72
$GPRMC,135153.301,V,,,,,0.00,0.00,090216,,,N*43
$GPVTG,0.00,T,,M,0.00,N,0.00,K,N*32
$GPGGA,135154.301,,,,,0,0,,,M,,M,,*4D
$GPGSA,A,1,,,,,,,,,,,,,,,*1E
$GPRMC,135154.301,V,,,,,0.00,0.00,090216,,,N*44
$GPVTG,0.00,T,,M,0.00,N,0.00,K,N*32
$GPGGA,135155.301,,,,,0,0,,,M,,M,,*4C
$GPGSA,A,1,,,,,,,,,,,,,,,*1E
$GPRMC,135155.301,V,,,,,0.00,0.00,090216,,,N*45
$GPVTG,0.00,T,,M,0.00,N,0.00,K,N*32
$GPGGA,135156.301,,,,,0,0,,,M,,M,,*4F
$GPGSA,A,1,,,,,,,,,,,,,,,*1E
$GPRMC,135156.301,V,,,,,0.00,0.00,090216,,,N*46
$GPVTG,0.00,T,,M,0.00,N,0.00,K,N*32
$GPGGA,135157.089,,,,,0,0,,,M,,M,,*4D
$GPGSA,A,1,,,,,,,,,,,,,,,*1E
$GPRMC,135157.089,V,,,,,0.00,0.00,090216,,,N*44
$GPVTG,0.00,T,,M,0.00,N,0.00,K,N*32
$GPGGA,135158.089,,,,,0,0,,,M,,M,,*42
$GPGSA,A,1,,,,,,,,,,,,,,,*1E
$GPGSV,2,1,06,30,,,40,28,,,39,15,,,24,13,,,36*7E
$GPGSV,2,2,06,07,,,35,05,,,39*71
$GPRMC,135158.089,V,,,,,0.00,0.00,090216,,,N*4B
$GPVTG,0.00,T,,M,0.00,N,0.00,K,N*32
$GPGGA,135159.089,,,,,0,0,,,M,,M,,*43
$GPGSA,A,1,,,,,,,,,,,,,,,*1E
$GPRMC,135159.089,V,,,,,0.00,0.00,090216,,,N*4A
$GPVTG,0.00,T,,M,0.00,N,0.00,K,N*32
$GPGGA,135200.089,,,,,0,0,,,M,,M,,*4C
$GPGSA,A,1,,,,,,,,,,,,,,,*1E
$GPRMC,135200.089,V,,,,,0.00,0.00,090216,,,N*45
$GPVTG,0.00,T,,M,0.00,N,0.00,K,N*32
$GPGGA,135201.089,,,,,0,0,,,M,,M,,*4D
$GPGSA,A,1,,,,,,,,,,,,,,,*1E
$GPRMC,135201.089,V,,,,,0.00,0.00,090216,,,N*44
$GPVTG,0.00,T,,M,0.00,N,0.00,K,N*32
$GPGGA,135202.089,,,,,0,0,,,M,,M,,*4E
$GPGSA,A,1,,,,,,,,,,,,,,,*1E
$GPRMC,135202.089,V,,,,,0.00,0.00,090216,,,N*47
$GPVTG,0.00,T,,M,0.00,N,0.00,K,N*32
$GPGGA,135203.089,,,,,0,0,,,M,,M,,*4F
$GPGSA,A,1,,,,,,,,,,,,,,,*1E
$GPGSV,2,1,05,30,,,39,28,,,40,13,,,35,07,,,36*7E
$GPGSV,2,2,05,05,,,40*7D
$GPRMC,135203.089,V,,,,,0.00,0.00,090216,,,N*46
$GPVTG,0.00,T,,M,0.00,N,0.00,K,N*32
$GPGGA,135204.089,,,,,0,0,,,M,,M,,*48
$GPGSA,A,1,,,,,,,,,,,,,,,*1E
$GPRMC,135204.089,V,,,,,0.00,0.00,090216,,,N*41
$GPVTG,0.00,T,,M,0.00,N,0.00,K,N*32
$GPGGA,135205.089,,,,,0,0,,,M,,M,,*49
$GPGSA,A,1,,,,,,,,,,,,,,,*1E
$GPRMC,135205.089,V,,,,,0.00,0.00,090216,,,N*40
$GPVTG,0.00,T,,M,0.00,N,0.00,K,N*32
$GPGGA,135206.089,,,,,0,0,,,M,,M,,*4A
$GPGSA,A,1,,,,,,,,,,,,,,,*1E
$GPRMC,135206.089,V,,,,,0.00,0.00,090216,,,N*43
$GPVTG,0.00,T,,M,0.00,N,0.00,K,N*32
$GPGGA,135207.089,,,,,0,0,,,M,,M,,*4B
$GPGSA,A,1,,,,,,,,,,,,,,,*1E
$GPRMC,135207.089,V,,,,,0.00,0.00,090216,,,N*42
$GPVTG,0.00,T,,M,0.00,N,0.00,K,N*32
$GPGGA,135208.089,,,,,0,0,,,M,,M,,*44
$GPGSA,A,1,,,,,,,,,,,,,,,*1E
$GPGSV,2,1,05,30,,,40,28,,,42,13,,,39,07,,,38*70
$GPGSV,2,2,05,05,,,42*7F
$GPRMC,135208.089,V,,,,,0.00,0.00,090216,,,N*4D
$GPVTG,0.00,T,,M,0.00,N,0.00,K,N*32
$GPGGA,135209.089,,,,,0,0,,,M,,M,,*45
$GPGSA,A,1,,,,,,,,,,,,,,,*1E
$GPRMC,135209.089,V,,,,,0.00,0.00,090216,,,N*4C
$GPVTG,0.00,T,,M,0.00,N,0.00,K,N*32
$GPGGA,135209.296,,,,,0,0,,,M,,M,,*49
$GPGSA,A,1,,,,,,,,,,,,,,,*1E
$GPRMC,135209.296,V,,,,,0.00,0.00,090216,,,N*40
$GPVTG,0.00,T,,M,0.00,N,0.00,K,N*32
$GPGGA,135210.296,,,,,0,0,,,M,,M,,*41
$GPGSA,A,1,,,,,,,,,,,,,,,*1E
$GPRMC,135210.296,V,,,,,0.00,0.00,090216,,,N*48
$GPVTG,0.00,T,,M,0.00,N,0.00,K,N*32
$GPGGA,135211.296,,,,,0,0,,,M,,M,,*40
$GPGSA,A,1,,,,,,,,,,,,,,,*1E
$GPRMC,135211.296,V,,,,,0.00,0.00,090216,,,N*49
$GPVTG,0.00,T,,M,0.00,N,0.00,K,N*32
$GPGGA,135212.296,,,,,0,0,,,M,,M,,*43
$GPGSA,A,1,,,,,,,,,,,,,,,*1E
$GPGSV,2,1,05,30,,,40,28,,,39,13,,,36,07,,,36*7D
$GPGSV,2,2,05,05,,,40*7D
$GPRMC,135212.296,V,,,,,0.00,0.00,090216,,,N*4A
$GPVTG,0.00,T,,M,0.00,N,0.00,K,N*32
$GPGGA,135213.296,,,,,0,0,,,M,,M,,*42
$GPGSA,A,1,,,,,,,,,,,,,,,*1E
$GPRMC,135213.296,V,,,,,0.00,0.00,090216,,,N*4B
$GPVTG,0.00,T,,M,0.00,N,0.00,K,N*32
$GPGGA,135214.296,,,,,0,0,,,M,,M,,*45
$GPGSA,A,1,,,,,,,,,,,,,,,*1E
$GPRMC,135214.296,V,,,,,0.00,0.00,090216,,,N*4C
$GPVTG,0.00,T,,M,0.00,N,0.00,K,N*32
$GPGGA,135215.086,,,,,0,0,,,M,,M,,*47
$GPGSA,A,1,,,,,,,,,,,,,,,*1E
$GPRMC,135215.086,V,,,,,0.00,0.00,090216,,,N*4E
$GPVTG,0.00,T,,M,0.00,N,0.00,K,N*32
$GPGGA,135215.306,,,,,0,0,,,M,,M,,*4C
$GPGSA,A,1,,,,,,,,,,,,,,,*1E
$GPRMC,135215.306,V,,,,,0.00,0.00,090216,,,N*45
$GPVTG,0.00,T,,M,0.00,N,0.00,K,N*32
$GPGGA,135216.306,,,,,0,0,,,M,,M,,*4F
$GPGSA,A,1,,,,,,,,,,,,,,,*1E
$GPGSV,1,1,04,30,,,42,28,,,41,07,,,41,05,,,41*75
$GPRMC,135216.306,V,,,,,0.00,0.00,090216,,,N*46
$GPVTG,0.00,T,,M,0.00,N,0.00,K,N*32
$GPGGA,135217.306,,,,,0,0,,,M,,M,,*4E
$GPGSA,A,1,,,,,,,,,,,,,,,*1E
$GPRMC,135217.306,V,,,,,0.00,0.00,090216,,,N*47
$GPVTG,0.00,T,,M,0.00,N,0.00,K,N*32
$GPGGA,135218.306,,,,,0,0,,,M,,M,,*41
$GPGSA,A,1,,,,,,,,,,,,,,,*1E
$GPRMC,135218.306,V,,,,,0.00,0.00,090216,,,N*48
$GPVTG,0.00,T,,M,0.00,N,0.00,K,N*32
$GPGGA,135219.306,,,,,0,0,,,M,,M,,*40
$GPGSA,A,1,,,,,,,,,,,,,,,*1E
$GPRMC,135219.306,V,,,,,0.00,0.00,090216,,,N*49
$GPVTG,0.00,T,,M,0.00,N,0.00,K,N*32
$GPGGA,135220.306,,,,,0,0,,,M,,M,,*4A
$GPGSA,A,1,,,,,,,,,,,,,,,*1E
$GPRMC,135220.306,V,,,,,0.00,0.00,090216,,,N*43
$GPVTG,0.00,T,,M,0.00,N,0.00,K,N*32
$GPGGA,135221.086,,,,,0,0,,,M,,M,,*40
$GPGSA,A,1,,,,,,,,,,,,,,,*1E
$GPGSV,2,1,05,30,,,42,28,,,39,13,,,37,07,,,37*7F
$GPGSV,2,2,05,05,,,39*73
$GPRMC,135221.086,V,,,,,0.00,0.00,090216,,,N*49
$GPVTG,0.00,T,,M,0.00,N,0.00,K,N*32
$GPGGA,135221.306,,,,,0,0,,,M,,M,,*4B
$GPGSA,A,1,,,,,,,,,,,,,,,*1E
$GPRMC,135221.306,V,,,,,0.00,0.00,090216,,,N*42
$GPVTG,0.00,T,,M,0.00,N,0.00,K,N*32
$GPGGA,135222.306,,,,,0,0,,,M,,M,,*48
$GPGSA,A,1,,,,,,,,,,,,,,,*1E
$GPRMC,135222.306,V,,,,,0.00,0.00,090216,,,N*41
$GPVTG,0.00,T,,M,0.00,N,0.00,K,N*32
$GPGGA,135223.306,,,,,0,0,,,M,,M,,*49
$GPGSA,A,1,,,,,,,,,,,,,,,*1E
$GPRMC,135223.306,V,,,,,0.00,0.00,090216,,,N*40
$GPVTG,0.00,T,,M,0.00,N,0.00,K,N*32
$GPGGA,135224.306,,,,,0,0,,,M,,M,,*4E
$GPGSA,A,1,,,,,,,,,,,,,,,*1E
$GPRMC,135224.306,V,,,,,0.00,0.00,090216,,,N*47
$GPVTG,0.00,T,,M,0.00,N,0.00,K,N*32
$GPGGA,135225.306,,,,,0,0,,,M,,M,,*4F
$GPGSA,A,1,,,,,,,,,,,,,,,*1E
$GPGSV,2,1,05,30,,,42,28,,,40,13,,,37,07,,,39*7F
$GPGSV,2,2,05,05,,,40*7D
$GPRMC,135225.306,V,,,,,0.00,0.00,090216,,,N*46
$GPVTG,0.00,T,,M,0.00,N,0.00,K,N*32
$GPGGA,135226.306,,,,,0,0,,,M,,M,,*4C
$GPGSA,A,1,,,,,,,,,,,,,,,*1E
$GPRMC,135226.306,V,,,,,0.00,0.00,090216,,,N*45
$GPVTG,0.00,T,,M,0.00,N,0.00,K,N*32
$GPGGA,135227.100,,,,,0,0,,,M,,M,,*49
$GPGSA,A,1,,,,,,,,,,,,,,,*1E
$GPRMC,135227.100,V,,,,,0.00,0.00,090216,,,N*40
$GPVTG,0.00,T,,M,0.00,N,0.00,K,N*32
$GPGGA,135228.100,,,,,0,0,,,M,,M,,*46
$GPGSA,A,1,,,,,,,,,,,,,,,*1E
$GPRMC,135228.100,V,,,,,0.00,0.00,090216,,,N*4F
$GPVTG,0.00,T,,M,0.00,N,0.00,K,N*32
$GPGGA,135229.100,,,,,0,0,,,M,,M,,*47
$GPGSA,A,1,,,,,,,,,,,,,,,*1E
$GPRMC,135229.100,V,,,,,0.00,0.00,090216,,,N*4E
$GPVTG,0.00,T,,M,0.00,N,0.00,K,N*32
$GPGGA,135230.100,,,,,0,0,,,M,,M,,*4F
$GPGSA,A,1,,,,,,,,,,,,,,,*1E
$GPGSV,2,1,05,30,,,41,28,,,37,13,,,36,07,,,34*70
$GPGSV,2,2,05,05,,,41*7C
$GPRMC,135230.100,V,,,,,0.00,0.00,090216,,,N*46
$GPVTG,0.00,T,,M,0.00,N,0.00,K,N*32
$GPGGA,135231.100,,,,,0,0,,,M,,M,,*4E
$GPGSA,A,1,,,,,,,,,,,,,,,*1E
$GPRMC,135231.100,V,,,,,0.00,0.00,090216,,,N*47
$GPVTG,0.00,T,,M,0.00,N,0.00,K,N*32
$GPGGA,135232.100,,,,,0,0,,,M,,M,,*4D
$GPGSA,A,1,,,,,,,,,,,,,,,*1E
$GPRMC,135232.100,V,,,,,0.00,0.00,090216,,,N*44
$GPVTG,0.00,T,,M,0.00,N,0.00,K,N*32
$GPGGA,135233.081,,,,,0,3,,,M,,M,,*47
$GPGSA,A,1,,,,,,,,,,,,,,,*1E
$GPRMC,135233.081,V,,,,,0.14,0.00,090216,,,N*48
$GPVTG,0.00,T,,M,0.14,N,0.26,K,N*33
$GPGGA,135233.301,4454.3806,N,00042.7276,W,1,5,1.59,99.8,M,49.6,M,,*7C
$GPGSA,A,3,30,28,13,07,05,,,,,,,,1.87,1.59,0.98*09
$GPRMC,135233.301,A,4454.3806,N,00042.7276,W,0.23,0.00,090216,,,A*78
$GPVTG,0.00,T,,M,0.23,N,0.43,K,A*3B
$GPGGA,135235.000,4454.3774,N,00042.7438,W,1,5,1.59,11.6,M,49.6,M,,*70
$GPGSA,A,3,30,28,13,07,05,,,,,,,,1.87,1.59,0.98*09
$GPGSV,2,1,06,05,65,203,39,13,61,305,36,30,53,055,40,28,44,122,37*79
$GPGSV,2,2,06,33,36,200,,07,22,054,34*79
$GPRMC,135235.000,A,4454.3774,N,00042.7438,W,0.40,0.00,090216,,,A*7F
$GPVTG,0.00,T,,M,0.40,N,0.74,K,A*3A
$GPGGA,135236.000,4454.3771,N,00042.7440,W,1,5,1.59,11.7,M,49.6,M,,*78
$GPGSA,A,3,30,28,13,07,05,,,,,,,,1.87,1.59,0.98*09
$GPRMC,135236.000,A,4454.3771,N,00042.7440,W,0.38,0.00,090216,,,A*79
$GPVTG,0.00,T,,M,0.38,N,0.70,K,A*31
$GPGGA,135237.000,4454.3771,N,00042.7445,W,1,5,1.59,11.8,M,49.6,M,,*73
$GPGSA,A,3,30,28,13,07,05,,,,,,,,1.87,1.59,0.98*09
$GPRMC,135237.000,A,4454.3771,N,00042.7445,W,0.28,0.00,090216,,,A*7C
$GPVTG,0.00,T,,M,0.28,N,0.51,K,A*33
$GPGGA,135238.000,4454.3771,N,00042.7447,W,1,5,1.59,12.0,M,49.6,M,,*75
$GPGSA,A,3,30,28,13,07,05,,,,,,,,1.87,1.59,0.98*09
$GPRMC,135238.000,A,4454.3771,N,00042.7447,W,0.23,0.00,090216,,,A*7A
$GPVTG,0.00,T,,M,0.23,N,0.43,K,A*3B
$GPGGA,135239.000,4454.3772,N,00042.7451,W,1,5,1.59,12.3,M,49.6,M,,*73
$GPGSA,A,3,30,28,13,07,05,,,,,,,,1.87,1.59,0.98*09
$GPRMC,135239.000,A,4454.3772,N,00042.7451,W,0.07,0.00,090216,,,A*79
$GPVTG,0.00,T,,M,0.07,N,0.14,K,A*3F
$GPGGA,135240.000,4454.3772,N,00042.7453,W,1,5,1.59,12.6,M,49.6,M,,*7A
$GPGSA,A,3,30,28,13,07,05,,,,,,,,1.87,1.59,0.98*09
$GPGSV,2,1,06,05,65,203,37,13,61,305,38,30,53,055,39,28,44,122,37*77
$GPGSV,2,2,06,33,36,200,,07,22,054,35*78
$GPRMC,135240.000,A,4454.3772,N,00042.7453,W,0.27,0.00,090216,,,A*77
$GPVTG,0.00,T,,M,0.27,N,0.51,K,A*3C
$GPGGA,135241.000,4454.3772,N,00042.7452,W,1,5,1.59,12.8,M,49.6,M,,*74
$GPGSA,A,3,30,28,13,07,05,,,,,,,,1.87,1.59,0.98*09
$GPRMC,135241.000,A,4454.3772,N,00042.7452,W,0.15,0.00,090216,,,A*76
$GPVTG,0.00,T,,M,0.15,N,0.27,K,A*3C
$GPGGA,135242.000,4454.3772,N,00042.7452,W,1,5,1.59,13.0,M,49.6,M,,*7E
$GPGSA,A,3,30,28,13,07,05,,,,,,,,1.87,1.59,0.98*09
$GPRMC,135242.000,A,4454.3772,N,00042.7452,W,0.01,0.00,090216,,,A*70
$GPVTG,0.00,T,,M,0.01,N,0.02,K,A*3E
$GPGGA,135243.000,4454.3770,N,00042.7451,W,1,5,1.59,13.1,M,49.6,M,,*7F
$GPGSA,A,3,30,28,13,07,05,,,,,,,,1.87,1.59,0.98*09
$GPRMC,135243.000,A,4454.3770,N,00042.7451,W,0.13,0.00,090216,,,A*73
$GPVTG,0.00,T,,M,0.13,N,0.24,K,A*39
$GPGGA,135244.000,4454.3769,N,00042.7451,W,1,5,1.59,13.2,M,49.6,M,,*73
$GPGSA,A,3,30,28,13,07,05,,,,,,,,1.87,1.59,0.98*09
$GPRMC,135244.000,A,4454.3769,N,00042.7451,W,0.14,0.00,090216,,,A*7B
$GPVTG,0.00,T,,M,0.14,N,0.26,K,A*3C
$GPGGA,135245.000,4454.3769,N,00042.7451,W,1,5,1.59,13.3,M,49.6,M,,*73
$GPGSA,A,3,30,28,13,07,05,,,,,,,,1.87,1.59,0.98*09
$GPGSV,2,1,07,05,65,203,37,13,61,305,39,30,53,055,38,28,44,122,36*77
$GPGSV,2,2,07,37,33,149,,07,22,054,31,20,,,37*74
$GPRMC,135245.000,A,4454.3769,N,00042.7451,W,0.26,0.00,090216,,,A*7B
$GPVTG,0.00,T,,M,0.26,N,0.49,K,A*34
$GPGGA,135246.000,4454.3770,N,00042.7451,W,1,5,2.17,13.4,M,49.6,M,,*76
$GPGSA,A,3,30,28,13,07,05,,,,,,,,4.95,2.17,4.45*02
$GPRMC,135246.000,A,4454.3770,N,00042.7451,W,0.37,0.00,090216,,,A*70
$GPVTG,0.00,T,,M,0.37,N,0.69,K,A*36
$GPGGA,135247.000,4454.3771,N,00042.7450,W,1,5,2.18,13.6,M,49.6,M,,*7A
$GPGSA,A,3,30,28,13,07,05,,,,,,,,4.95,2.18,4.45*0D
$GPRMC,135247.000,A,4454.3771,N,00042.7450,W,0.30,0.00,090216,,,A*76
$GPVTG,0.00,T,,M,0.30,N,0.55,K,A*3E
$GPGGA,135248.000,4454.3771,N,00042.7450,W,1,5,1.59,13.7,M,49.6,M,,*72
$GPGSA,A,3,30,28,13,07,05,,,,,,,,1.87,1.59,0.98*09
$GPRMC,135248.000,A,4454.3771,N,00042.7450,W,0.06,0.00,090216,,,A*7C
$GPVTG,0.00,T,,M,0.06,N,0.12,K,A*38
$GPGGA,135249.000,4454.3772,N,00042.7449,W,1,5,1.59,13.7,M,49.6,M,,*78
$GPGSA,A,3,30,28,13,07,05,,,,,,,,1.87,1.59,0.98*09
$GPRMC,135249.000,A,4454.3772,N,00042.7449,W,0.16,0.00,090216,,,A*77
$GPVTG,0.00,T,,M,0.16,N,0.30,K,A*39
$GPGGA,135250.000,4454.3773,N,00042.7448,W,1,5,1.59,13.7,M,49.6,M,,*70
$GPGSA,A,3,30,28,13,07,05,,,,,,,,1.87,1.59,0.98*09
$GPGSV,2,1,07,05,65,203,38,13,62,305,39,30,53,055,38,28,44,122,37*7A
$GPGSV,2,2,07,37,33,149,,07,22,054,29,20,,,37*7D
$GPRMC,135250.000,A,4454.3773,N,00042.7448,W,0.12,0.00,090216,,,A*7B
$GPVTG,0.00,T,,M,0.12,N,0.22,K,A*3E
$GPGGA,135251.000,4454.3775,N,00042.7447,W,1,5,1.59,13.8,M,49.6,M,,*77
$GPGSA,A,3,30,28,13,07,05,,,,,,,,1.87,1.59,0.98*09
$GPRMC,135251.000,A,4454.3775,N,00042.7447,W,0.15,0.00,090216,,,A*74
$GPVTG,0.00,T,,M,0.15,N,0.28,K,A*33
$GPGGA,135252.000,4454.3777,N,00042.7447,W,1,5,1.59,13.7,M,49.6,M,,*79
$GPGSA,A,3,30,28,13,07,05,,,,,,,,1.87,1.59,0.98*09
$GPRMC,135252.000,A,4454.3777,N,00042.7447,W,0.21,0.00,090216,,,A*72
$GPVTG,0.00,T,,M,0.21,N,0.39,K,A*34
$GPGGA,135253.000,4454.3778,N,00042.7447,W,1,5,2.18,13.7,M,49.6,M,,*71
$GPGSA,A,3,30,28,13,07,05,,,,,,,,4.95,2.18,4.44*0C
$GPRMC,135253.000,A,4454.3778,N,00042.7447,W,0.17,0.00,090216,,,A*79
$GPVTG,0.00,T,,M,0.17,N,0.32,K,A*3A
$GPGGA,135254.000,4454.3779,N,00042.7448,W,1,5,1.59,13.6,M,49.6,M,,*7F
$GPGSA,A,3,30,28,13,07,05,,,,,,,,1.87,1.59,0.98*09
$GPRMC,135254.000,A,4454.3779,N,00042.7448,W,0.23,0.00,090216,,,A*77
$GPVTG,0.00,T,,M,0.23,N,0.43,K,A*3B
$GPGGA,135255.000,4454.3778,N,00042.7446,W,1,5,1.59,13.6,M,49.6,M,,*71
$GPGSA,A,3,30,28,13,07,05,,,,,,,,1.87,1.59,0.98*09
$GPGSV,2,1,07,05,65,203,37,13,62,305,41,30,53,055,41,28,44,122,36*75
$GPGSV,2,2,07,39,31,145,,07,22,054,30,20,,,39*7B
$GPRMC,135255.000,A,4454.3778,N,00042.7446,W,0.12,0.00,090216,,,A*7B
$GPVTG,0.00,T,,M,0.12,N,0.21,K,A*3D
$GPGGA,135256.000,4454.3778,N,00042.7446,W,1,5,1.59,13.3,M,49.6,M,,*77
$GPGSA,A,3,30,28,13,07,05,,,,,,,,1.87,1.59,0.98*09
$GPRMC,135256.000,A,4454.3778,N,00042.7446,W,0.01,0.00,090216,,,A*7A
$GPVTG,0.00,T,,M,0.01,N,0.02,K,A*3E
$GPGGA,135257.000,4454.3778,N,00042.7446,W,1,5,1.59,12.9,M,49.6,M,,*7D
$GPGSA,A,3,30,28,13,07,05,,,,,,,,1.87,1.59,0.98*09
$GPRMC,135257.000,A,4454.3778,N,00042.7446,W,0.04,0.00,090216,,,A*7E
$GPVTG,0.00,T,,M,0.04,N,0.07,K,A*3E
$GPGGA,135258.000,4454.3779,N,00042.7446,W,1,5,1.59,12.8,M,49.6,M,,*72
$GPGSA,A,3,30,28,13,07,05,,,,,,,,1.87,1.59,0.98*09
$GPRMC,135258.000,A,4454.3779,N,00042.7446,W,0.19,0.00,090216,,,A*7C
$GPVTG,0.00,T,,M,0.19,N,0.36,K,A*30
$GPGGA,135259.000,4454.3779,N,00042.7446,W,1,5,1.59,13.0,M,49.6,M,,*7A
$GPGSA,A,3,30,28,13,07,05,,,,,,,,1.87,1.59,0.98*09
$GPRMC,135259.000,A,4454.3779,N,00042.7446,W,0.27,0.00,090216,,,A*70
$GPVTG,0.00,T,,M,0.27,N,0.50,K,A*3D
$GPGGA,135300.000,4454.3779,N,00042.7447,W,1,5,1.59,13.3,M,49.6,M,,*75
$GPGSA,A,3,30,28,13,07,05,,,,,,,,1.87,1.59,0.98*09
$GPGSV,2,1,07,05,65,203,31,13,62,305,39,30,53,055,42,28,44,122,38*71
$GPGSV,2,2,07,39,31,145,,07,22,054,37,20,,,39*7C
$GPRMC,135300.000,A,4454.3779,N,00042.7447,W,0.29,0.00,090216,,,A*72
$GPVTG,0.00,T,,M,0.29,N,0.54,K,A*37
$GPGGA,135301.000,4454.3779,N,00042.7447,W,1,5,1.59,13.5,M,49.6,M,,*72
$GPGSA,A,3,30,28,13,07,05,,,,,,,,1.87,1.59,0.98*09
$GPRMC,135301.000,A,4454.3779,N,00042.7447,W,0.25,0.00,090216,,,A*7F
$GPVTG,0.00,T,,M,0.25,N,0.46,K,A*38
$GPGGA,135302.000,4454.3779,N,00042.7446,W,1,5,1.59,13.5,M,49.6,M,,*70
$GPGSA,A,3,30,28,13,07,05,,,,,,,,1.87,1.59,0.98*09
$GPRMC,135302.000,A,4454.3779,N,00042.7446,W,0.22,0.00,090216,,,A*7A
$GPVTG,0.00,T,,M,0.22,N,0.40,K,A*39
$GPGGA,135303.000,4454.3780,N,00042.7445,W,1,5,1.59,13.5,M,49.6,M,,*74
$GPGSA,A,3,30,28,13,07,05,,,,,,,,1.87,1.59,0.98*09
$GPRMC,135303.000,A,4454.3780,N,00042.7445,W,0.18,0.00,090216,,,A*77
$GPVTG,0.00,T,,M,0.18,N,0.33,K,A*34
$GPGGA,135304.000,4454.3779,N,00042.7441,W,1,6,1.37,14.1,M,49.6,M,,*79
$GPGSA,A,3,30,28,20,13,07,05,,,,,,,1.68,1.37,0.96*0C
$GPRMC,135304.000,A,4454.3779,N,00042.7441,W,0.19,0.00,090216,,,A*73
$GPVTG,0.00,T,,M,0.19,N,0.35,K,A*33
$GPGGA,135305.000,4454.3779,N,00042.7438,W,1,6,1.37,14.6,M,49.6,M,,*71
$GPGSA,A,3,30,28,20,13,07,05,,,,,,,1.68,1.37,0.96*0C
$GPGSV,2,1,07,05,65,203,37,13,62,305,39,30,53,055,41,28,44,122,37*7B
$GPGSV,2,2,07,20,43,298,38,07,22,054,36,40,09,108,*44
$GPRMC,135305.000,A,4454.3779,N,00042.7438,W,0.16,0.00,090216,,,A*73
$GPVTG,0.00,T,,M,0.16,N,0.30,K,A*39
$GPGGA,135306.000,4454.3780,N,00042.7435,W,1,6,1.37,15.1,M,49.6,M,,*7F
$GPGSA,A,3,30,28,20,13,07,05,,,,,,,1.68,1.37,0.96*0C
$GPRMC,135306.000,A,4454.3780,N,00042.7435,W,0.16,0.00,090216,,,A*7B
$GPVTG,0.00,T,,M,0.16,N,0.29,K,A*31
$GPGGA,135307.000,4454.3779,N,00042.7435,W,1,6,1.37,15.2,M,49.6,M,,*7B
$GPGSA,A,3,30,28,20,13,07,05,,,,,,,1.68,1.37,0.96*0C
$GPRMC,135307.000,A,4454.3779,N,00042.7435,W,0.10,0.00,090216,,,A*7A
$GPVTG,0.00,T,,M,0.10,N,0.19,K,A*34
$GPGGA,135308.000,4454.3779,N,00042.7434,W,1,6,1.37,15.2,M,49.6,M,,*75
$GPGSA,A,3,30,28,20,13,07,05,,,,,,,1.68,1.37,0.96*0C
$GPRMC,135308.000,A,4454.3779,N,00042.7434,W,0.06,0.00,090216,,,A*73
$GPVTG,0.00,T,,M,0.06,N,0.12,K,A*38
$GPGGA,135309.000,4454.3779,N,00042.7434,W,1,6,1.37,15.2,M,49.6,M,,*74
$GPGSA,A,3,30,28,20,13,07,05,,,,,,,1.68,1.37,0.96*0C
$GPRMC,135309.000,A,4454.3779,N,00042.7434,W,0.13,0.00,090216,,,A*76
$GPVTG,0.00,T,,M,0.13,N,0.23,K,A*3E
$GPGGA,135310.000,4454.3779,N,00042.7434,W,1,6,1.37,15.2,M,49.6,M,,*7C
$GPGSA,A,3,30,28,20,13,07,05,,,,,,,1.68,1.37,0.96*0C
$GPGSV,2,1,07,05,65,203,37,13,62,305,39,30,53,055,40,28,44,122,40*7A
$GPGSV,2,2,07,20,43,298,37,07,22,054,37,40,09,108,*4A
$GPRMC,135310.000,A,4454.3779,N,00042.7434,W,0.08,0.00,090216,,,A*74
$GPVTG,0.00,T,,M,0.08,N,0.15,K,A*31
$GPGGA,135311.000,4454.3779,N,00042.7434,W,1,6,1.37,15.2,M,49.6,M,,*7D
$GPGSA,A,3,30,28,20,13,07,05,,,,,,,1.68,1.37,0.96*0C
$GPRMC,135311.000,A,4454.3779,N,00042.7434,W,0.53,0.00,090216,,,A*7B
$GPVTG,0.00,T,,M,0.53,N,0.98,K,A*3A
$GPGGA,135312.000,4454.3779,N,00042.7436,W,1,6,1.37,15.2,M,49.6,M,,*7C
$GPGSA,A,3,30,28,20,13,07,05,,,,,,,1.68,1.37,0.96*0C
$GPRMC,135312.000,A,4454.3779,N,00042.7436,W,0.18,0.00,090216,,,A*75
$GPVTG,0.00,T,,M,0.18,N,0.33,K,A*34
$GPGGA,135313.000,4454.3779,N,00042.7437,W,1,6,1.37,15.2,M,49.6,M,,*7C
$GPGSA,A,3,30,28,20,13,07,05,,,,,,,1.68,1.37,0.96*0C
$GPRMC,135313.000,A,4454.3779,N,00042.7437,W,0.20,0.00,090216,,,A*7E
$GPVTG,0.00,T,,M,0.20,N,0.37,K,A*3B
$GPGGA,135314.000,4454.3779,N,00042.7437,W,1,6,1.37,15.2,M,49.6,M,,*7B
$GPGSA,A,3,30,28,20,13,07,05,,,,,,,1.68,1.37,0.96*0C
$GPRMC,135314.000,A,4454.3779,N,00042.7437,W,0.13,0.00,090216,,,A*79
$GPVTG,0.00,T,,M,0.13,N,0.25,K,A*38
$GPGGA,135315.000,4454.3779,N,00042.7438,W,1,6,1.37,15.2,M,49.6,M,,*75
$GPGSA,A,3,30,28,20,13,07,05,,,,,,,1.68,1.37,0.96*0C
$GPGSV,2,1,07,05,65,203,35,13,62,305,41,30,53,055,41,28,44,122,39*78
$GPGSV,2,2,07,20,43,298,38,07,22,054,36,44,07,107,*41
$GPRMC,135315.000,A,4454.3779,N,00042.7438,W,0.11,0.00,090216,,,A*75
$GPVTG,0.00,T,,M,0.11,N,0.20,K,A*3F
$GPGGA,135316.000,4454.3779,N,00042.7438,W,1,6,1.37,15.2,M,49.6,M,,*76
$GPGSA,A,3,30,28,20,13,07,05,,,,,,,1.68,1.37,0.96*0C
$GPRMC,135316.000,A,4454.3779,N,00042.7438,W,0.10,0.00,090216,,,A*77
$GPVTG,0.00,T,,M,0.10,N,0.19,K,A*34
$GPGGA,135317.000,4454.3779,N,00042.7439,W,1,6,1.37,15.2,M,49.6,M,,*76
$GPGSA,A,3,30,28,20,13,07,05,,,,,,,1.68,1.37,0.96*0C
$GPRMC,135317.000,A,4454.3779,N,00042.7439,W,0.25,0.00,090216,,,A*71
$GPVTG,0.00,T,,M,0.25,N,0.47,K,A*39
$GPGGA,135318.000,4454.3779,N,00042.7439,W,1,6,1.37,15.2,M,49.6,M,,*79
$GPGSA,A,3,30,28,20,13,07,05,,,,,,,1.68,1.37,0.96*0C
$GPRMC,135318.000,A,4454.3779,N,00042.7439,W,0.33,0.00,090216,,,A*79
$GPVTG,0.00,T,,M,0.33,N,0.61,K,A*3A
$GPGGA,135319.000,4454.3780,N,00042.7439,W,1,6,1.69,15.2,M,49.6,M,,*75
$GPGSA,A,3,30,28,20,13,07,05,,,,,,,3.85,1.69,3.46*08
$GPRMC,135319.000,A,4454.3780,N,00042.7439,W,0.79,177.72,090216,,,A*74
$GPVTG,177.72,T,,M,0.79,N,1.46,K,A*34
$GPGGA,135320.000,4454.3780,N,00042.7436,W,1,6,1.37,15.7,M,49.6,M,,*7E
$GPGSA,A,3,30,28,20,13,07,05,,,,,,,1.68,1.37,0.96*0C
$GPGSV,2,1,07,05,65,203,37,13,62,305,41,30,53,055,41,28,44,122,40*74
$GPGSV,2,2,07,20,43,298,38,33,36,200,,07,22,054,35*44
$GPRMC,135320.000,A,4454.3780,N,00042.7436,W,0.16,177.72,090216,,,A*78
$GPVTG,177.72,T,,M,0.16,N,0.30,K,A*3D
$GPGGA,135321.000,4454.3782,N,00042.7431,W,1,6,1.37,16.3,M,49.6,M,,*7D
$GPGSA,A,3,30,28,20,13,07,05,,,,,,,1.68,1.37,0.96*0C
$GPRMC,135321.000,A,4454.3782,N,00042.7431,W,0.22,177.72,090216,,,A*7B
$GPVTG,177.72,T,,M,0.22,N,0.40,K,A*3D
$GPGGA,135322.000,4454.3781,N,00042.7429,W,1,6,1.37,16.6,M,49.6,M,,*71
$GPGSA,A,3,30,28,20,13,07,05,,,,,,,1.68,1.37,0.96*0C
$GPRMC,135322.000,A,4454.3781,N,00042.7429,W,0.42,177.72,090216,,,A*74
$GPVTG,177.72,T,,M,0.42,N,0.79,K,A*31
$GPGGA,135323.000,4454.3783,N,00042.7428,W,1,6,1.37,16.7,M,49.6,M,,*72
$GPGSA,A,3,30,28,20,13,07,05,,,,,,,1.68,1.37,0.96*0C
$GPRMC,135323.000,A,4454.3783,N,00042.7428,W,0.26,177.72,090216,,,A*74
$GPVTG,177.72,T,,M,0.26,N,0.48,K,A*31
$GPGGA,135324.000,4454.3782,N,00042.7428,W,1,6,1.37,16.7,M,49.6,M,,*74
$GPGSA,A,3,30,28,20,13,07,05,,,,,,,1.68,1.37,0.96*0C
$GPRMC,135324.000,A,4454.3782,N,00042.7428,W,0.07,177.72,090216,,,A*71
$GPVTG,177.72,T,,M,0.07,N,0.13,K,A*3C
$GPGGA,135325.000,4454.3783,N,00042.7428,W,1,6,1.37,16.7,M,49.6,M,,*74
$GPGSA,A,3,30,28,20,13,07,05,,,,,,,1.68,1.37,0.96*0C
$GPGSV,2,1,07,05,65,203,39,13,62,306,38,30,53,055,41,28,44,122,37*77
$GPGSV,2,2,07,20,43,298,27,33,36,200,,07,22,054,32*4D
$GPRMC,135325.000,A,4454.3783,N,00042.7428,W,0.12,177.72,090216,,,A*75
$GPVTG,177.72,T,,M,0.12,N,0.22,K,A*3A
$GPGGA,135326.000,4454.3783,N,00042.7427,W,1,6,1.37,16.7,M,49.6,M,,*78
$GPGSA,A,3,30,28,20,13,07,05,,,,,,,1.68,1.37,0.96*0C
$GPRMC,135326.000,A,4454.3783,N,00042.7427,W,0.17,177.72,090216,,,A*7C
$GPVTG,177.72,T,,M,0.17,N,0.31,K,A*3D
$GPGGA,135327.000,4454.3782,N,00042.7428,W,1,6,1.37,16.7,M,49.6,M,,*77
$GPGSA,A,3,30,28,20,13,07,05,,,,,,,1.68,1.37,0.96*0C
$GPRMC,135327.000,A,4454.3782,N,00042.7428,W,0.17,177.72,090216,,,A*73
$GPVTG,177.72,T,,M,0.17,N,0.31,K,A*3D
$GPGGA,135328.000,4454.3782,N,00042.7428,W,1,6,1.37,16.7,M,49.6,M,,*78
$GPGSA,A,3,30,28,20,13,07,05,,,,,,,1.68,1.37,0.96*0C
$GPRMC,135328.000,A,4454.3782,N,00042.7428,W,0.14,177.72,090216,,,A*7F
$GPVTG,177.72,T,,M,0.14,N,0.26,K,A*38
$GPGGA,135329.000,4454.3782,N,00042.7429,W,1,6,1.37,16.7,M,49.6,M,,*78
$GPGSA,A,3,30,28,20,13,07,05,,,,,,,1.68,1.37,0.96*0C
$GPRMC,135329.000,A,4454.3782,N,00042.7429,W,0.28,177.72,090216,,,A*70
$GPVTG,177.72,T,,M,0.28,N,0.51,K,A*37
$GPGGA,135330.000,4454.3783,N,00042.7429,W,1,6,1.37,16.7,M,49.6,M,,*71
$GPGSA,A,3,30,28,20,13,07,05,,,,,,,1.68,1.37,0.96*0C
$GPGSV,2,1,07,05,65,203,39,13,62,306,36,30,53,055,40,28,44,122,40*78
$GPGSV,2,2,07,20,43,298,35,37,33,149,,07,22,054,31*42
$GPRMC,135330.000,A,4454.3783,N,00042.7429,W,0.16,177.72,090216,,,A*74
$GPVTG,177.72,T,,M,0.16,N,0.30,K,A*3D
$GPGGA,135331.000,4454.3783,N,00042.7429,W,1,6,1.37,16.7,M,49.6,M,,*70
$GPGSA,A,3,30,28,20,13,07,05,,,,,,,1.68,1.37,0.96*0C
$GPRMC,135331.000,A,4454.3783,N,00042.7429,W,0.22,177.72,090216,,,A*72
$GPVTG,177.72,T,,M,0.22,N,0.41,K,A*3C
$GPGGA,135332.000,4454.3784,N,00042.7430,W,1,6,1.37,16.7,M,49.6,M,,*7C
$GPGSA,A,3,30,28,20,13,07,05,,,,,,,1.68,1.37,0.96*0C
$GPRMC,135332.000,A,4454.3784,N,00042.7430,W,0.16,177.72,090216,,,A*79
$GPVTG,177.72,T,,M,0.16,N,0.29,K,A*35
$GPGGA,135333.000,4454.3784,N,00042.7430,W,1,6,1.69,16.7,M,49.6,M,,*76
$GPGSA,A,3,30,28,20,13,07,05,,,,,,,3.85,1.69,3.45*0B
$GPRMC,135333.000,A,4454.3784,N,00042.7430,W,0.36,177.72,090216,,,A*7A
$GPVTG,177.72,T,,M,0.36,N,0.66,K,A*3C
$GPGGA,135334.000,4454.3785,N,00042.7429,W,1,6,1.37,16.7,M,49.6,M,,*73
$GPGSA,A,3,30,28,20,13,07,05,,,,,,,1.68,1.37,0.96*0C
$GPRMC,135334.000,A,4454.3785,N,00042.7429,W,0.24,177.72,090216,,,A*77
$GPVTG,177.72,T,,M,0.24,N,0.45,K,A*3E
$GPGGA,135335.000,4454.3786,N,00042.7429,W,1,6,1.69,16.7,M,49.6,M,,*7A
$GPGSA,A,3,30,28,20,13,07,05,,,,,,,3.85,1.69,3.46*08
$GPGSV,2,1,08,05,65,203,38,13,62,306,36,30,53,055,39,28,44,122,40*78
$GPGSV,2,2,08,20,43,298,34,37,33,149,,07,22,054,29,15,,,29*4A
$GPRMC,135335.000,A,4454.3786,N,00042.7429,W,0.38,177.72,090216,,,A*78
$GPVTG,177.72,T,,M,0.38,N,0.70,K,A*35
$GPGGA,135336.000,4454.3787,N,00042.7429,W,1,6,1.69,16.7,M,49.6,M,,*78
$GPGSA,A,3,30,28,20,13,07,05,,,,,,,3.85,1.69,3.45*0B
$GPRMC,135336.000,A,4454.3787,N,00042.7429,W,0.56,177.72,090216,,,A*72
$GPVTG,177.72,T,,M,0.56,N,1.05,K,A*3E
$GPGGA,135337.000,4454.3786,N,00042.7431,W,1,6,1.37,13.5,M,49.6,M,,*7D
$GPGSA,A,3,30,28,20,13,07,05,,,,,,,1.68,1.37,0.96*0C
$GPRMC,135337.000,A,4454.3786,N,00042.7431,W,0.25,177.72,090216,,,A*7F
$GPVTG,177.72,T,,M,0.25,N,0.47,K,A*3D
$GPGGA,135338.000,4454.3786,N,00042.7432,W,1,6,1.37,13.8,M,49.6,M,,*7C
$GPGSA,A,3,30,28,20,13,07,05,,,,,,,1.68,1.37,0.96*0C
$GPRMC,135338.000,A,4454.3786,N,00042.7432,W,0.24,177.72,090216,,,A*72
$GPVTG,177.72,T,,M,0.24,N,0.45,K,A*3E
$GPGGA,135339.000,4454.3786,N,00042.7432,W,1,6,1.37,13.6,M,49.6,M,,*73
$GPGSA,A,3,30,28,20,13,07,05,,,,,,,1.68,1.37,0.96*0C
$GPRMC,135339.000,A,4454.3786,N,00042.7432,W,0.12,177.72,090216,,,A*76
$GPVTG,177.72,T,,M,0.12,N,0.22,K,A*3A
$GPGGA,135340.000,4454.3786,N,00042.7432,W,1,6,1.37,13.5,M,49.6,M,,*7E
$GPGSA,A,3,30,28,20,13,07,05,,,,,,,1.68,1.37,0.96*0C
$GPGSV,2,1,08,05,65,203,39,13,62,306,38,30,53,055,39,28,45,122,39*78
$GPGSV,2,2,08,20,43,298,35,39,31,145,,07,22,054,30,15,,,35*4E
$GPRMC,135340.000,A,4454.3786,N,00042.7432,W,0.17,177.72,090216,,,A*7D
$GPVTG,177.72,T,,M,0.17,N,0.31,K,A*3D
$GPGGA,135341.000,4454.3785,N,00042.7433,W,1,6,1.37,13.5,M,49.6,M,,*7D
$GPGSA,A,3,30,28,20,13,07,05,,,,,,,1.68,1.37,0.96*0C
$GPRMC,135341.000,A,4454.3785,N,00042.7433,W,0.16,177.72,090216,,,A*7F
$GPVTG,177.72,T,,M,0.16,N,0.30,K,A*3D
$GPGGA,135342.000,4454.3785,N,00042.7433,W,1,6,1.37,13.4,M,49.6,M,,*7F
$GPGSA,A,3,30,28,20,13,07,05,,,,,,,1.68,1.37,0.96*0C
$GPRMC,135342.000,A,4454.3785,N,00042.7433,W,0.70,339.61,090216,,,A*76
$GPVTG,339.61,T,,M,0.70,N,1.29,K,A*3E
$GPGGA,135343.000,4454.3785,N,00042.7432,W,1,6,1.37,13.5,M,49.6,M,,*7E
$GPGSA,A,3,30,28,20,13,07,05,,,,,,,1.68,1.37,0.96*0C
$GPRMC,135343.000,A,4454.3785,N,00042.7432,W,0.34,339.61,090216,,,A*76
$GPVTG,339.61,T,,M,0.34,N,0.64,K,A*36
$GPGGA,135344.000,4454.3785,N,00042.7429,W,1,6,1.37,13.9,M,49.6,M,,*7F
$GPGSA,A,3,30,28,20,13,07,05,,,,,,,1.68,1.37,0.96*0C
$GPRMC,135344.000,A,4454.3785,N,00042.7429,W,0.17,339.61,090216,,,A*7A
$GPVTG,339.61,T,,M,0.17,N,0.32,K,A*34
$GPGGA,135345.000,4454.3784,N,00042.7429,W,1,6,1.37,13.8,M,49.6,M,,*7E
$GPGSA,A,3,30,28,20,13,07,05,,,,,,,1.68,1.37,0.96*0C
$GPGSV,2,1,08,05,65,203,40,13,62,306,38,30,52,055,38,28,45,122,40*78
$GPGSV,2,2,08,20,43,298,30,39,31,145,,07,22,054,28,15,,,37*40
$GPRMC,135345.000,A,4454.3784,N,00042.7429,W,0.33,339.61,090216,,,A*7C
$GPVTG,339.61,T,,M,0.33,N,0.61,K,A*34
$GPGGA,135346.000,4454.3784,N,00042.7430,W,1,6,1.37,13.8,M,49.6,M,,*75
$GPGSA,A,3,30,28,20,13,07,05,,,,,,,1.68,1.37,0.96*0C
$GPRMC,135346.000,A,4454.3784,N,00042.7430,W,0.25,339.61,090216,,,A*70
$GPVTG,339.61,T,,M,0.25,N,0.47,K,A*37
$GPGGA,135347.000,4454.3784,N,00042.7431,W,1,6,1.37,13.8,M,49.6,M,,*75
$GPGSA,A,3,30,28,20,13,07,05,,,,,,,1.68,1.37,0.96*0C
$GPRMC,135347.000,A,4454.3784,N,00042.7431,W,0.19,339.61,090216,,,A*7F
$GPVTG,339.61,T,,M,0.19,N,0.35,K,A*3D
$GPGGA,135348.000,4454.3784,N,00042.7432,W,1,6,1.37,13.8,M,49.6,M,,*79
$GPGSA,A,3,30,28,20,13,07,05,,,,,,,1.68,1.37,0.96*0C
$GPRMC,135348.000,A,4454.3784,N,00042.7432,W,0.25,339.61,090216,,,A*7C
$GPVTG,339.61,T,,M,0.25,N,0.46,K,A*36
$GPGGA,135349.000,4454.3784,N,00042.7433,W,1,6,1.37,13.8,M,49.6,M,,*79
$GPGSA,A,3,30,28,20,13,07,05,,,,,,,1.68,1.37,0.96*0C
$GPRMC,135349.000,A,4454.3784,N,00042.7433,W,0.19,339.61,090216,,,A*73
$GPVTG,339.61,T,,M,0.19,N,0.35,K,A*3D
$GPGGA,135350.000,4454.3783,N,00042.7433,W,1,6,1.37,13.8,M,49.6,M,,*76
$GPGSA,A,3,30,28,20,13,07,05,,,,,,,1.68,1.37,0.96*0C
$GPGSV,2,1,08,05,65,203,38,13,62,306,37,30,52,055,39,28,45,122,39*77
$GPGSV,2,2,08,20,43,298,31,07,22,054,34,40,09,108,,15,,,34*43
$GPRMC,135350.000,A,4454.3783,N,00042.7433,W,0.27,339.61,090216,,,A*71
$GPVTG,339.61,T,,M,0.27,N,0.50,K,A*33
$GPGGA,135351.000,4454.3782,N,00042.7433,W,1,6,1.37,13.8,M,49.6,M,,*76
$GPGSA,A,3,30,28,20,13,07,05,,,,,,,1.68,1.37,0.96*0C
$GPRMC,135351.000,A,4454.3782,N,00042.7433,W,0.28,339.61,090216,,,A*7E
$GPVTG,339.61,T,,M,0.28,N,0.52,K,A*3E
$GPGGA,135352.000,4454.3782,N,00042.7432,W,1,6,1.37,13.8,M,49.6,M,,*74
$GPGSA,A,3,30,28,20,13,07,05,,,,,,,1.68,1.37,0.96*0C
$GPRMC,135352.000,A,4454.3782,N,00042.7432,W,0.13,339.61,090216,,,A*74
$GPVTG,339.61,T,,M,0.13,N,0.25,K,A*36
$GPGGA,135353.000,4454.3782,N,00042.7432,W,1,6,1.70,13.8,M,49.6,M,,*76
$GPGSA,A,3,30,28,20,13,07,05,,,,,,,3.85,1.70,3.45*03
$GPRMC,135353.000,A,4454.3782,N,00042.7432,W,0.59,337.12,090216,,,A*71
$GPVTG,337.12,T,,M,0.59,N,1.10,K,A*35
$GPGGA,135354.000,4454.3783,N,00042.7432,W,1,6,1.37,14.0,M,49.6,M,,*7C
$GPGSA,A,3,30,28,20,13,07,05,,,,,,,1.68,1.37,0.96*0C
$GPRMC,135354.000,A,4454.3783,N,00042.7432,W,0.59,337.94,090216,,,A*79
$GPVTG,337.94,T,,M,0.59,N,1.10,K,A*3B
$GPGGA,135355.000,4454.3783,N,00042.7429,W,1,6,1.37,14.3,M,49.6,M,,*74
$GPGSA,A,3,30,28,20,13,07,05,,,,,,,1.68,1.37,0.96*0C
$GPGSV,2,1,08,05,64,202,39,13,62,306,39,30,52,055,39,28,45,122,39*78
$GPGSV,2,2,08,20,43,298,40,07,22,054,33,40,09,108,,15,,,37*41
$GPRMC,135355.000,A,4454.3783,N,00042.7429,W,0.39,337.94,090216,,,A*74
$GPVTG,337.94,T,,M,0.39,N,0.73,K,A*39
$GPGGA,135356.000,4454.3783,N,00042.7428,W,1,6,1.37,14.5,M,49.6,M,,*70
$GPGSA,A,3,30,28,20,13,07,05,,,,,,,1.68,1.37,0.96*0C
$GPRMC,135356.000,A,4454.3783,N,00042.7428,W,0.16,337.94,090216,,,A*7B
$GPVTG,337.94,T,,M,0.16,N,0.30,K,A*33
$GPGGA,135357.000,4454.3782,N,00042.7427,W,1,6,1.37,14.6,M,49.6,M,,*7C
$GPGSA,A,3,30,28,20,13,07,05,,,,,,,1.68,1.37,0.96*0C
$GPRMC,135357.000,A,4454.3782,N,00042.7427,W,0.18,337.94,090216,,,A*7A
$GPVTG,337.94,T,,M,0.18,N,0.33,K,A*3E
$GPGGA,135358.000,4454.3782,N,00042.7426,W,1,6,1.37,14.8,M,49.6,M,,*7C
$GPGSA,A,3,30,28,20,13,07,05,,,,,,,1.68,1.37,0.96*0C
$GPRMC,135358.000,A,4454.3782,N,00042.7426,W,0.18,337.94,090216,,,A*74
$GPVTG,337.94,T,,M,0.18,N,0.33,K,A*3E
$GPGGA,135359.000,4454.3781,N,00042.7426,W,1,6,1.37,14.8,M,49.6,M,,*7E
$GPGSA,A,3,30,28,20,13,07,05,,,,,,,1.68,1.37,0.96*0C
$GPRMC,135359.000,A,4454.3781,N,00042.7426,W,0.08,337.94,090216,,,A*77
$GPVTG,337.94,T,,M,0.08,N,0.15,K,A*3B
$GPGGA,135400.000,4454.3782,N,00042.7426,W,1,6,1.70,14.8,M,49.6,M,,*75
$GPGSA,A,3,30,28,20,13,07,05,,,,,,,3.85,1.70,3.45*03
$GPGSV,2,1,08,05,64,202,39,13,62,306,40,30,52,055,38,28,45,122,39*77
$GPGSV,2,2,08,20,43,298,40,07,22,054,30,44,07,107,,15,,,37*47
$GPRMC,135400.000,A,4454.3782,N,00042.7426,W,0.18,337.94,090216,,,A*7E
$GPVTG,337.94,T,,M,0.18,N,0.33,K,A*3E
$GPGGA,135401.000,4454.3782,N,00042.7426,W,1,6,1.37,14.8,M,49.6,M,,*77
$GPGSA,A,3,30,28,20,13,07,05,,,,,,,1.68,1.37,0.96*0C
$GPRMC,135401.000,A,4454.3782,N,00042.7426,W,0.14,337.94,090216,,,A*73
$GPVTG,337.94,T,,M,0.14,N,0.25,K,A*35
$GPGGA,135402.000,4454.3782,N,00042.7426,W,1,6,1.37,14.8,M,49.6,M,,*74
$GPGSA,A,3,30,28,20,13,07,05,,,,,,,1.68,1.37,0.96*0C
$GPRMC,135402.000,A,4454.3782,N,00042.7426,W,0.09,337.94,090216,,,A*7C
$GPVTG,337.94,T,,M,0.09,N,0.17,K,A*38
$GPGGA,135403.000,4454.3782,N,00042.7426,W,1,6,1.37,14.8,M,49.6,M,,*75
$GPGSA,A,3,30,28,20,13,07,05,,,,,,,1.68,1.37,0.96*0C
$GPRMC,135403.000,A,4454.3782,N,00042.7426,W,0.16,337.94,090216,,,A*73
$GPVTG,337.94,T,,M,0.16,N,0.30,K,A*33
$GPGGA,135404.000,4454.3783,N,00042.7426,W,1,7,1.29,14.8,M,49.6,M,,*7D
$GPGSA,A,3,30,28,20,13,07,05,15,,,,,,1.58,1.29,0.92*00
$GPRMC,135404.000,A,4454.3783,N,00042.7426,W,0.13,337.94,090216,,,A*70
$GPVTG,337.94,T,,M,0.13,N,0.24,K,A*33
$GPGGA,135405.000,4454.3782,N,00042.7426,W,1,7,1.29,14.8,M,49.6,M,,*7D
$GPGSA,A,3,30,28,20,13,07,05,15,,,,,,1.58,1.29,0.92*00
$GPGSV,2,1,08,05,64,202,39,13,62,306,40,30,52,055,38,28,45,122,37*79
$GPGSV,2,2,08,20,43,298,38,15,24,291,37,07,22,054,33,44,07,107,*77
$GPRMC,135405.000,A,4454.3782,N,00042.7426,W,0.42,337.94,090216,,,A*74
$GPVTG,337.94,T,,M,0.42,N,0.77,K,A*31
$GPGGA,135406.000,4454.3782,N,00042.7425,W,1,7,1.29,14.9,M,49.6,M,,*7C
$GPGSA,A,3,30,28,20,13,07,05,15,,,,,,1.58,1.29,0.91*03
$GPRMC,135406.000,A,4454.3782,N,00042.7425,W,0.31,337.94,090216,,,A*70
$GPVTG,337.94,T,,M,0.31,N,0.57,K,A*37
$GPGGA,135407.000,4454.3781,N,00042.7424,W,1,7,1.29,14.9,M,49.6,M,,*7F
$GPGSA,A,3,30,28,20,13,07,05,15,,,,,,1.58,1.29,0.92*00
$GPRMC,135407.000,A,4454.3781,N,00042.7424,W,0.36,337.94,090216,,,A*74
$GPVTG,337.94,T,,M,0.36,N,0.67,K,A*33
$GPGGA,135408.000,4454.3782,N,00042.7423,W,1,7,1.29,14.9,M,49.6,M,,*74
$GPGSA,A,3,30,28,20,13,07,05,15,,,,,,1.58,1.29,0.92*00
$GPRMC,135408.000,A,4454.3782,N,00042.7423,W,0.27,337.94,090216,,,A*7F
$GPVTG,337.94,T,,M,0.27,N,0.50,K,A*37
$GPGGA,135409.000,4454.3782,N,00042.7423,W,1,7,1.44,14.9,M,49.6,M,,*7E
$GPGSA,A,3,30,28,20,13,07,05,15,,,,,,2.69,1.44,2.27*06
$GPRMC,135409.000,A,4454.3782,N,00042.7423,W,0.19,337.94,090216,,,A*73
$GPVTG,337.94,T,,M,0.19,N,0.35,K,A*39
$GPGGA,135410.000,4454.3783,N,00042.7422,W,1,7,1.29,14.9,M,49.6,M,,*7D
$GPGSA,A,3,30,28,20,13,07,05,15,,,,,,1.58,1.29,0.92*00
$GPGSV,2,1,08,05,64,202,39,13,62,306,40,30,52,055,37,28,45,122,37*76
$GPGSV,2,2,08,20,43,298,38,15,24,291,35,07,22,054,31,34,,,*41
$GPRMC,135410.000,A,4454.3783,N,00042.7422,W,0.29,337.94,090216,,,A*78
$GPVTG,337.94,T,,M,0.29,N,0.53,K,A*3A
$GPGGA,135411.000,4454.3784,N,00042.7422,W,1,7,1.29,15.0,M,49.6,M,,*73
$GPGSA,A,3,30,28,20,13,07,05,15,,,,,,1.58,1.29,0.92*00
$GPRMC,135411.000,A,4454.3784,N,00042.7422,W,0.23,337.94,090216,,,A*74
$GPVTG,337.94,T,,M,0.23,N,0.43,K,A*31
$GPGGA,135412.000,4454.3784,N,00042.7422,W,1,7,1.29,15.0,M,49.6,M,,*70
$GPGSA,A,3,30,28,20,13,07,05,15,,,,,,1.58,1.29,0.92*00
$GPRMC,135412.000,A,4454.3784,N,00042.7422,W,0.03,337.94,090216,,,A*75
$GPVTG,337.94,T,,M,0.03,N,0.06,K,A*32
$GPGGA,135413.000,4454.3784,N,00042.7422,W,1,7,1.29,15.0,M,49.6,M,,*71
$GPGSA,A,3,30,28,20,13,07,05,15,,,,,,1.58,1.29,0.92*00
$GPRMC,135413.000,A,4454.3784,N,00042.7422,W,0.11,337.94,090216,,,A*77
$GPVTG,337.94,T,,M,0.11,N,0.20,K,A*35
$GPGGA,135414.000,4454.3784,N,00042.7422,W,1,7,1.29,15.0,M,49.6,M,,*76
$GPGSA,A,3,30,28,20,13,07,05,15,,,,,,1.58,1.29,0.92*00
$GPRMC,135414.000,A,4454.3784,N,00042.7422,W,0.05,337.94,090216,,,A*75
$GPVTG,337.94,T,,M,0.05,N,0.09,K,A*3B
$GPGGA,135415.000,4454.3784,N,00042.7422,W,1,7,1.29,15.0,M,49.6,M,,*77
$GPGSA,A,3,30,28,20,13,07,05,15,,,,,,1.58,1.29,0.92*00
$GPGSV,2,1,08,05,64,202,38,13,62,306,41,30,52,055,38,28,45,122,37*79
$GPGSV,2,2,08,20,43,298,38,15,24,291,34,07,22,054,31,35,,,*41
$GPRMC,135415.000,A,4454.3784,N,00042.7422,W,0.05,337.94,090216,,,A*74
$GPVTG,337.94,T,,M,0.05,N,0.09,K,A*3B
$GPGGA,135416.000,4454.3784,N,00042.7422,W,1,7,1.29,15.1,M,49.6,M,,*75
$GPGSA,A,3,30,28,20,13,07,05,15,,,,,,1.58,1.29,0.92*00
$GPRMC,135416.000,A,4454.3784,N,00042.7422,W,0.10,337.94,090216,,,A*73
$GPVTG,337.94,T,,M,0.10,N,0.19,K,A*3E
$GPGGA,135417.000,4454.3784,N,00042.7422,W,1,7,1.29,15.1,M,49.6,M,,*74
$GPGSA,A,3,30,28,20,13,07,05,15,,,,,,1.58,1.29,0.92*00
$GPRMC,135417.000,A,4454.3784,N,00042.7422,W,0.33,337.94,090216,,,A*73
$GPVTG,337.94,T,,M,0.33,N,0.62,K,A*33
$GPGGA,135418.000,4454.3785,N,00042.7421,W,1,7,1.29,15.1,M,49.6,M,,*79
$GPGSA,A,3,30,28,20,13,07,05,15,,,,,,1.58,1.29,0.92*00
$GPRMC,135418.000,A,4454.3785,N,00042.7421,W,0.31,337.94,090216,,,A*7C
$GPVTG,337.94,T,,M,0.31,N,0.57,K,A*37
$GPGGA,135419.000,4454.3785,N,00042.7420,W,1,7,1.29,15.1,M,49.6,M,,*79
$GPGSA,A,3,30,28,20,13,07,05,15,,,,,,1.58,1.29,0.92*00
$GPRMC,135419.000,A,4454.3785,N,00042.7420,W,0.36,337.94,090216,,,A*7B
$GPVTG,337.94,T,,M,0.36,N,0.67,K,A*33
$GPGGA,135420.000,4454.3785,N,00042.7418,W,1,7,1.29,15.1,M,49.6,M,,*78
$GPGSA,A,3,30,28,20,13,07,05,15,,,,,,1.58,1.29,0.92*00
$GPGSV,2,1,08,05,64,202,38,13,62,306,40,30,52,055,38,28,45,122,38*77
$GPGSV,2,2,08,20,43,298,39,15,24,291,33,07,22,054,33,36,,,*46
$GPRMC,135420.000,A,4454.3785,N,00042.7418,W,0.15,337.94,090216,,,A*7B
$GPVTG,337.94,T,,M,0.15,N,0.28,K,A*39
$GPGGA,135421.000,4454.3785,N,00042.7418,W,1,7,1.29,15.2,M,49.6,M,,*7A
$GPGSA,A,3,30,28,20,13,07,05,15,,,,,,1.58,1.29,0.92*00
$GPRMC,135421.000,A,4454.3785,N,00042.7418,W,0.11,337.94,090216,,,A*7E
$GPVTG,337.94,T,,M,0.11,N,0.21,K,A*34
$GPGGA,135422.000,4454.3785,N,00042.7418,W,1,7,1.29,15.2,M,49.6,M,,*79
$GPGSA,A,3,30,28,20,13,07,05,15,,,,,,1.58,1.29,0.92*00
$GPRMC,135422.000,A,4454.3785,N,00042.7418,W,0.40,337.94,090216,,,A*79
$GPVTG,337.94,T,,M,0.40,N,0.74,K,A*30
$GPGGA,135423.000,4454.3786,N,00042.7420,W,1,7,1.29,15.2,M,49.6,M,,*70
$GPGSA,A,3,30,28,20,13,07,05,15,,,,,,1.58,1.29,0.92*00
$GPRMC,135423.000,A,4454.3786,N,00042.7420,W,0.53,337.94,090216,,,A*72
$GPVTG,337.94,T,,M,0.53,N,0.98,K,A*30
$GPGGA,135424.000,4454.3786,N,00042.7422,W,1,7,1.29,15.2,M,49.6,M,,*75
$GPGSA,A,3,30,28,20,13,07,05,15,,,,,,1.58,1.29,0.92*00
$GPRMC,135424.000,A,4454.3786,N,00042.7422,W,0.35,337.94,090216,,,A*77
$GPVTG,337.94,T,,M,0.35,N,0.65,K,A*32
$GPGGA,135425.000,4454.3786,N,00042.7423,W,1,7,1.29,15.2,M,49.6,M,,*75
$GPGSA,A,3,30,28,20,13,07,05,15,,,,,,1.58,1.29,0.92*00
$GPGSV,2,1,08,05,64,202,39,13,62,306,38,30,52,055,39,28,45,122,37*77
$GPGSV,2,2,08,20,43,298,36,15,24,291,27,07,22,054,34,38,,,*45
$GPRMC,135425.000,A,4454.3786,N,00042.7423,W,0.15,337.94,090216,,,A*75
$GPVTG,337.94,T,,M,0.15,N,0.29,K,A*38
$GPGGA,135426.000,4454.3786,N,00042.7423,W,1,7,1.29,15.2,M,49.6,M,,*76
$GPGSA,A,3,30,28,20,13,07,05,15,,,,,,1.58,1.29,0.92*00
$GPRMC,135426.000,A,4454.3786,N,00042.7423,W,0.12,337.94,090216,,,A*71
$GPVTG,337.94,T,,M,0.12,N,0.23,K,A*35
$GPGGA,135427.000,4454.3786,N,00042.7424,W,1,7,1.29,15.2,M,49.6,M,,*70
$GPGSA,A,3,30,28,20,13,07,05,15,,,,,,1.58,1.29,0.92*00
$GPRMC,135427.000,A,4454.3786,N,00042.7424,W,0.31,337.94,090216,,,A*76
$GPVTG,337.94,T,,M,0.31,N,0.57,K,A*37
$GPGGA,135428.000,4454.3786,N,00042.7425,W,1,7,1.29,15.2,M,49.6,M,,*7E
$GPGSA,A,3,30,28,20,13,07,05,15,,,,,,1.58,1.29,0.92*00
$GPRMC,135428.000,A,4454.3786,N,00042.7425,W,0.27,337.94,090216,,,A*7F
$GPVTG,337.94,T,,M,0.27,N,0.50,K,A*37
$GPGGA,135429.000,4454.3786,N,00042.7425,W,1,7,1.44,15.2,M,49.6,M,,*74
$GPGSA,A,3,30,28,20,13,07,05,15,,,,,,2.69,1.44,2.28*09
$GPRMC,135429.000,A,4454.3786,N,00042.7425,W,0.33,337.94,090216,,,A*7B
$GPVTG,337.94,T,,M,0.33,N,0.61,K,A*30
$GPGGA,135430.000,4454.3786,N,00042.7426,W,1,7,1.29,15.2,M,49.6,M,,*74
$GPGSA,A,3,30,28,20,13,07,05,15,,,,,,1.58,1.29,0.92*00
$GPGSV,2,1,08,05,64,202,41,13,62,306,38,30,52,055,39,28,45,122,37*78
$GPGSV,2,2,08,20,43,298,35,15,24,291,31,07,22,054,33,38,,,34*41
$GPRMC,135430.000,A,4454.3786,N,00042.7426,W,0.29,337.94,090216,,,A*7B
$GPVTG,337.94,T,,M,0.29,N,0.53,K,A*3A
$GPGGA,135431.000,4454.3785,N,00042.7426,W,1,7,1.29,15.2,M,49.6,M,,*76
$GPGSA,A,3,30,28,20,13,07,05,15,,,,,,1.58,1.29,0.92*00
$GPRMC,135431.000,A,4454.3785,N,00042.7426,W,0.10,337.94,090216,,,A*73
$GPVTG,337.94,T,,M,0.10,N,0.19,K,A*3E
$GPGGA,135432.000,4454.3786,N,00042.7426,W,1,7,1.29,15.3,M,49.6,M,,*77
$GPGSA,A,3,30,28,20,13,07,05,15,,,,,,1.58,1.29,0.92*00
$GPRMC,135432.000,A,4454.3786,N,00042.7426,W,0.44,337.94,090216,,,A*72
$GPVTG,337.94,T,,M,0.44,N,0.82,K,A*3D
$GPGGA,135433.000,4454.3785,N,00042.7425,W,1,7,1.29,15.3,M,49.6,M,,*76
$GPGSA,A,3,30,28,20,13,07,05,15,,,,,,1.58,1.29,0.92*00
$GPRMC,135433.000,A,4454.3785,N,00042.7425,W,0.18,337.94,090216,,,A*7A
$GPVTG,337.94,T,,M,0.18,N,0.32,K,A*3F
$GPGGA,135434.000,4454.3785,N,00042.7424,W,1,7,1.29,15.3,M,49.6,M,,*70
$GPGSA,A,3,30,28,20,13,07,05,15,,,,,,1.58,1.29,0.92*00
$GPRMC,135434.000,A,4454.3785,N,00042.7424,W,0.24,337.94,090216,,,A*73
$GPVTG,337.94,T,,M,0.24,N,0.44,K,A*31
$GPGGA,135435.000,4454.3784,N,00042.7424,W,1,7,1.29,15.3,M,49.6,M,,*70
$GPGSA,A,3,30,28,20,13,07,05,15,,,,,,1.58,1.29,0.92*00
$GPGSV,2,1,08,05,64,202,40,13,62,306,39,30,52,055,39,28,45,122,37*78
$GPGSV,2,2,08,20,43,298,38,15,24,291,35,07,22,054,32,41,,,*40
$GPRMC,135435.000,A,4454.3784,N,00042.7424,W,0.59,312.40,090216,,,A*77
$GPVTG,312.40,T,,M,0.59,N,1.10,K,A*35
$GPGGA,135436.000,4454.3783,N,00042.7424,W,1,7,1.29,15.5,M,49.6,M,,*72
$GPGSA,A,3,30,28,20,13,07,05,15,,,,,,1.58,1.29,0.92*00
$GPRMC,135436.000,A,4454.3783,N,00042.7424,W,0.25,312.40,090216,,,A*78
$GPVTG,312.40,T,,M,0.25,N,0.46,K,A*3C
$GPGGA,135437.000,4454.3784,N,00042.7423,W,1,7,1.29,15.8,M,49.6,M,,*7E
$GPGSA,A,3,30,28,20,13,07,05,15,,,,,,1.58,1.29,0.92*00
$GPRMC,135437.000,A,4454.3784,N,00042.7423,W,0.19,312.40,090216,,,A*76
$GPVTG,312.40,T,,M,0.19,N,0.36,K,A*34
$GPGGA,135438.000,4454.3784,N,00042.7424,W,1,7,1.29,16.1,M,49.6,M,,*7C
$GPGSA,A,3,30,28,20,13,07,05,15,,,,,,1.58,1.29,0.92*00
$GPRMC,135438.000,A,4454.3784,N,00042.7424,W,0.12,312.40,090216,,,A*75
$GPVTG,312.40,T,,M,0.12,N,0.23,K,A*3B
$GPGGA,135439.000,4454.3785,N,00042.7424,W,1,7,1.29,16.5,M,49.6,M,,*78
$GPGSA,A,3,30,28,20,13,07,05,15,,,,,,1.58,1.29,0.92*00
$GPRMC,135439.000,A,4454.3785,N,00042.7424,W,0.19,312.40,090216,,,A*7E
$GPVTG,312.40,T,,M,0.19,N,0.36,K,A*34
$GPGGA,135440.000,4454.3786,N,00042.7424,W,1,7,1.44,16.5,M,49.6,M,,*7E
$GPGSA,A,3,30,28,20,13,07,05,15,,,,,,2.69,1.44,2.28*09
$GPGSV,2,1,08,05,64,202,40,13,62,306,39,30,52,055,40,28,45,122,38*79
$GPGSV,2,2,08,20,43,298,37,15,24,291,35,07,22,054,33,41,,,*4E
$GPRMC,135440.000,A,4454.3786,N,00042.7424,W,0.15,312.40,090216,,,A*7F
$GPVTG,312.40,T,,M,0.15,N,0.28,K,A*37
$GPGGA,135441.000,4454.3786,N,00042.7424,W,1,7,1.29,16.5,M,49.6,M,,*74
$GPGSA,A,3,30,28,20,13,07,05,15,,,,,,1.58,1.29,0.92*00
$GPRMC,135441.000,A,4454.3786,N,00042.7424,W,0.02,312.40,090216,,,A*78
$GPVTG,312.40,T,,M,0.02,N,0.04,K,A*3F
$GPGGA,135442.000,4454.3786,N,00042.7424,W,1,7,1.29,16.5,M,49.6,M,,*77
$GPGSA,A,3,30,28,20,13,07,05,15,,,,,,1.58,1.29,0.92*00
$GPRMC,135442.000,A,4454.3786,N,00042.7424,W,0.07,312.40,090216,,,A*7E
$GPVTG,312.40,T,,M,0.07,N,0.14,K,A*3B
$GPGGA,135443.000,4454.3785,N,00042.7424,W,1,7,1.29,16.5,M,49.6,M,,*75
$GPGSA,A,3,30,28,20,13,07,05,15,,,,,,1.58,1.29,0.92*00
$GPRMC,135443.000,A,4454.3785,N,00042.7424,W,0.02,312.40,090216,,,A*79
$GPVTG,312.40,T,,M,0.02,N,0.04,K,A*3F
$GPGGA,135444.000,4454.3786,N,00042.7424,W,1,7,1.29,16.6,M,49.6,M,,*72
$GPGSA,A,3,30,28,20,13,07,05,15,,,,,,1.58,1.29,0.92*00
$GPRMC,135444.000,A,4454.3786,N,00042.7424,W,0.15,312.40,090216,,,A*7B
$GPVTG,312.40,T,,M,0.15,N,0.27,K,A*38
$GPGGA,135445.000,4454.3786,N,00042.7424,W,1,7,1.29,16.6,M,49.6,M,,*73
$GPGSA,A,3,30,28,20,13,07,05,15,,,,,,1.58,1.29,0.92*00
$GPGSV,2,1,08,05,64,202,41,13,62,306,38,30,52,055,40,28,45,122,41*77
$GPGSV,2,2,08,20,44,298,36,15,24,291,36,07,22,054,31,43,,,*4B
$GPRMC,135445.000,A,4454.3786,N,00042.7424,W,0.34,312.40,090216,,,A*79
$GPVTG,312.40,T,,M,0.34,N,0.64,K,A*3C
$GPGGA,135446.000,4454.3785,N,00042.7423,W,1,7,1.29,16.6,M,49.6,M,,*74
$GPGSA,A,3,30,28,20,13,07,05,15,,,,,,1.58,1.29,0.92*00
$GPRMC,135446.000,A,4454.3785,N,00042.7423,W,0.15,312.40,090216,,,A*7D
$GPVTG,312.40,T,,M,0.15,N,0.27,K,A*38
$GPGGA,135447.000,4454.3785,N,00042.7424,W,1,7,1.29,16.6,M,49.6,M,,*72
$GPGSA,A,3,30,28,20,13,07,05,15,,,,,,1.58,1.29,0.92*00
$GPRMC,135447.000,A,4454.3785,N,00042.7424,W,0.17,312.40,090216,,,A*79
$GPVTG,312.40,T,,M,0.17,N,0.32,K,A*3E
$GPGGA,135448.000,4454.3784,N,00042.7423,W,1,7,1.29,16.6,M,49.6,M,,*7B
$GPGSA,A,3,30,28,20,13,07,05,15,,,,,,1.58,1.29,0.92*00
$GPRMC,135448.000,A,4454.3784,N,00042.7423,W,0.04,312.40,090216,,,A*72
$GPVTG,312.40,T,,M,0.04,N,0.07,K,A*3A
$GPGGA,135449.000,4454.3784,N,00042.7423,W,1,7,1.29,16.7,M,49.6,M,,*7B
$GPGSA,A,3,30,28,20,13,07,05,15,,,,,,1.58,1.29,0.92*00
$GPRMC,135449.000,A,4454.3784,N,00042.7423,W,0.02,312.40,090216,,,A*75
$GPVTG,312.40,T,,M,0.02,N,0.03,K,A*38
$GPGGA,135450.000,4454.3784,N,00042.7423,W,1,7,1.29,16.7,M,49.6,M,,*73
$GPGSA,A,3,30,28,20,13,07,05,15,,,,,,1.58,1.29,0.92*00
$GPGSV,2,1,08,05,64,202,40,13,62,306,39,30,52,055,38,28,45,122,40*79
$GPGSV,2,2,08,20,44,298,38,15,24,291,38,07,22,054,19,45,,,*47
$GPRMC,135450.000,A,4454.3784,N,00042.7423,W,0.08,312.40,090216,,,A*77
$GPVTG,312.40,T,,M,0.08,N,0.14,K,A*34
$GPGGA,135451.000,4454.3784,N,00042.7423,W,1,7,1.29,16.7,M,49.6,M,,*72
$GPGSA,A,3,30,28,20,13,07,05,15,,,,,,1.58,1.29,0.92*00
$GPRMC,135451.000,A,4454.3784,N,00042.7423,W,0.26,312.40,090216,,,A*7A
$GPVTG,312.40,T,,M,0.26,N,0.48,K,A*31
$GPGGA,135452.000,4454.3784,N,00042.7423,W,1,7,1.29,16.7,M,49.6,M,,*71
$GPGSA,A,3,30,28,20,13,07,05,15,,,,,,1.58,1.29,0.92*00
$GPRMC,135452.000,A,4454.3784,N,00042.7423,W,0.17,312.40,090216,,,A*7B
$GPVTG,312.40,T,,M,0.17,N,0.31,K,A*3D
$GPGGA,135453.000,4454.3783,N,00042.7423,W,1,7,1.29,16.7,M,49.6,M,,*77
$GPGSA,A,3,30,28,20,13,07,05,15,,,,,,1.58,1.29,0.92*00
$GPRMC,135453.000,A,4454.3783,N,00042.7423,W,0.01,312.40,090216,,,A*7A
$GPVTG,312.40,T,,M,0.01,N,0.01,K,A*39
$GPGGA,135454.000,4454.3783,N,00042.7423,W,1,7,1.29,16.8,M,49.6,M,,*7F
$GPGSA,A,3,30,28,20,13,07,05,15,,,,,,1.58,1.29,0.92*00
$GPRMC,135454.000,A,4454.3783,N,00042.7423,W,0.05,312.40,090216,,,A*79
$GPVTG,312.40,T,,M,0.05,N,0.09,K,A*35
$GPGGA,135455.000,4454.3783,N,00042.7423,W,1,7,1.29,16.8,M,49.6,M,,*7E
$GPGSA,A,3,30,28,20,13,07,05,15,,,,,,1.58,1.29,0.92*00
$GPGSV,2,1,08,05,64,202,40,13,62,306,39,30,52,055,38,28,45,121,40*7A
$GPGSV,2,2,08,20,44,298,38,15,24,291,40,07,22,054,29,46,,,*48
$GPRMC,135455.000,A,4454.3783,N,00042.7423,W,0.07,312.40,090216,,,A*7A
$GPVTG,312.40,T,,M,0.07,N,0.12,K,A*3D
$GPGGA,135456.000,4454.3783,N,00042.7423,W,1,7,1.29,16.8,M,49.6,M,,*7D
$GPGSA,A,3,30,28,20,13,07,05,15,,,,,,1.58,1.29,0.92*00
$GPRMC,135456.000,A,4454.3783,N,00042.7423,W,0.07,312.40,090216,,,A*79
$GPVTG,312.40,T,,M,0.07,N,0.12,K,A*3D
$GPGGA,135457.000,4454.3783,N,00042.7423,W,1,7,1.29,16.8,M,49.6,M,,*7C
$GPGSA,A,3,30,28,20,13,07,05,15,,,,,,1.58,1.29,0.92*00
$GPRMC,135457.000,A,4454.3783,N,00042.7423,W,0.04,312.40,090216,,,A*7B
$GPVTG,312.40,T,,M,0.04,N,0.08,K,A*35
$GPGGA,135458.000,4454.3783,N,00042.7423,W,1,7,1.29,16.8,M,49.6,M,,*73
$GPGSA,A,3,30,28,20,13,07,05,15,,,,,,1.58,1.29,0.92*00
$GPRMC,135458.000,A,4454.3783,N,00042.7423,W,0.07,312.40,090216,,,A*77
$GPVTG,312.40,T,,M,0.07,N,0.12,K,A*3D
$GPGGA,135459.000,4454.3783,N,00042.7423,W,1,7,1.29,16.8,M,49.6,M,,*72
$GPGSA,A,3,30,28,20,13,07,05,15,,,,,,1.58,1.29,0.92*00
$GPRMC,135459.000,A,4454.3783,N,00042.7423,W,0.14,312.40,090216,,,A*74
$GPVTG,312.40,T,,M,0.14,N,0.26,K,A*38
$GPGGA,135500.000,4454.3783,N,00042.7423,W,1,7,1.29,16.8,M,49.6,M,,*7F
$GPGSA,A,3,30,28,20,13,07,05,15,,,,,,1.58,1.29,0.92*00
$GPGSV,2,1,08,05,64,202,41,13,62,306,39,30,52,055,37,28,45,121,41*75
$GPGSV,2,2,08,20,44,298,38,15,24,291,39,07,22,054,29,46,,,*46
$GPRMC,135500.000,A,4454.3783,N,00042.7423,W,0.32,312.40,090216,,,A*7D
$GPVTG,312.40,T,,M,0.32,N,0.60,K,A*3E
$GPGGA,135501.000,4454.3784,N,00042.7423,W,1,7,1.29,16.8,M,49.6,M,,*79
$GPGSA,A,3,30,28,20,13,07,05,15,,,,,,1.58,1.29,0.92*00
$GPRMC,135501.000,A,4454.3784,N,00042.7423,W,0.19,312.40,090216,,,A*72
$GPVTG,312.40,T,,M,0.19,N,0.35,K,A*37
$GPGGA,135502.000,4454.3784,N,00042.7422,W,1,7,1.29,16.8,M,49.6,M,,*7B
$GPGSA,A,3,30,28,20,13,07,05,15,,,,,,1.58,1.29,0.92*00
$GPRMC,135502.000,A,4454.3784,N,00042.7422,W,0.10,312.40,090216,,,A*79
$GPVTG,312.40,T,,M,0.10,N,0.18,K,A*31
$GPGGA,135503.000,4454.3784,N,00042.7422,W,1,7,1.29,16.8,M,49.6,M,,*7A
$GPGSA,A,3,30,28,20,13,07,05,15,,,,,,1.58,1.29,0.92*00
$GPRMC,135503.000,A,4454.3784,N,00042.7422,W,0.09,312.40,090216,,,A*70
$GPVTG,312.40,T,,M,0.09,N,0.17,K,A*36
$GPGGA,135504.000,4454.3784,N,00042.7422,W,1,7,1.29,16.8,M,49.6,M,,*7D
$GPGSA,A,3,30,28,20,13,07,05,15,,,,,,1.58,1.29,0.92*00
$GPRMC,135504.000,A,4454.3784,N,00042.7422,W,0.56,312.40,090216,,,A*7D
$GPVTG,312.40,T,,M,0.56,N,1.04,K,A*3F
$GPGGA,135505.000,4454.3782,N,00042.7421,W,1,7,1.29,16.3,M,49.6,M,,*72
$GPGSA,A,3,30,28,20,13,07,05,15,,,,,,1.58,1.29,0.92*00
$GPGSV,2,1,08,05,64,202,41,13,62,306,40,30,52,055,37,28,45,121,38*75
$GPGSV,2,2,08,20,44,298,38,15,24,291,39,07,22,054,33,47,,,*4C
$GPRMC,135505.000,A,4454.3782,N,00042.7421,W,0.33,312.40,090216,,,A*7A
$GPVTG,312.40,T,,M,0.33,N,0.62,K,A*3D
$GPGGA,135506.000,4454.3782,N,00042.7420,W,1,7,1.29,16.1,M,49.6,M,,*72
$GPGSA,A,3,30,28,20,13,07,05,15,,,,,,1.58,1.29,0.92*00
$GPRMC,135506.000,A,4454.3782,N,00042.7420,W,0.14,312.40,090216,,,A*7D
$GPVTG,312.40,T,,M,0.14,N,0.27,K,A*39
$GPGGA,135507.000,4454.3781,N,00042.7420,W,1,7,1.29,16.0,M,49.6,M,,*71
$GPGSA,A,3,30,28,20,13,07,05,15,,,,,,1.58,1.29,0.92*00
$GPRMC,135507.000,A,4454.3781,N,00042.7420,W,1.17,188.12,090216,,,A*7B
$GPVTG,188.12,T,,M,1.17,N,2.17,K,A*3C
$GPGGA,135508.000,4454.3781,N,00042.7418,W,1,7,1.29,16.2,M,49.6,M,,*77
$GPGSA,A,3,30,28,20,13,07,05,15,,,,,,1.58,1.29,0.92*00
$GPRMC,135508.000,A,4454.3781,N,00042.7418,W,0.55,188.12,090216,,,A*78
$GPVTG,188.12,T,,M,0.55,N,1.01,K,A*3F
$GPGGA,135509.000,4454.3780,N,00042.7419,W,1,7,1.29,16.4,M,49.6,M,,*70
$GPGSA,A,3,30,28,20,13,07,05,15,,,,,,1.58,1.29,0.92*00
$GPRMC,135509.000,A,4454.3780,N,00042.7419,W,0.51,188.12,090216,,,A*7D
$GPVTG,188.12,T,,M,0.51,N,0.94,K,A*36
$GPGGA,135510.000,4454.3782,N,00042.7419,W,1,7,1.29,16.6,M,49.6,M,,*78
$GPGSA,A,3,30,28,20,13,07,05,15,,,,,,1.58,1.29,0.92*00
$GPGSV,2,1,08,05,64,202,41,13,62,306,40,30,52,055,37,28,45,121,37*7A
$GPGSV,2,2,08,20,44,298,40,15,24,291,38,07,21,054,35,49,,,*49
$GPRMC,135510.000,A,4454.3782,N,00042.7419,W,0.46,188.12,090216,,,A*71
$GPVTG,188.12,T,,M,0.46,N,0.85,K,A*30
$GPGGA,135511.000,4454.3781,N,00042.7420,W,1,7,1.44,16.9,M,49.6,M,,*74
$GPGSA,A,3,30,28,20,13,07,05,15,,,,,,2.70,1.44,2.29*00
$GPRMC,135511.000,A,4454.3781,N,00042.7420,W,0.18,188.12,090216,,,A*72
$GPVTG,188.12,T,,M,0.18,N,0.34,K,A*31
$GPGGA,135512.000,4454.3781,N,00042.7421,W,1,7,1.29,16.9,M,49.6,M,,*7D
$GPGSA,A,3,30,28,20,13,07,05,15,,,,,,1.58,1.29,0.92*00
$GPRMC,135512.000,A,4454.3781,N,00042.7421,W,0.13,188.12,090216,,,A*7B
$GPVTG,188.12,T,,M,0.13,N,0.24,K,A*3B
$GPGGA,135513.000,4454.3781,N,00042.7421,W,1,7,1.29,16.8,M,49.6,M,,*7D
$GPGSA,A,3,30,28,20,13,07,05,15,,,,,,1.58,1.29,0.92*00
$GPRMC,135513.000,A,4454.3781,N,00042.7421,W,0.03,188.12,090216,,,A*7B
$GPVTG,188.12,T,,M,0.03,N,0.05,K,A*39
$GPGGA,135514.000,4454.3781,N,00042.7421,W,1,7,1.29,16.8,M,49.6,M,,*7A
$GPGSA,A,3,30,28,20,13,07,05,15,,,,,,1.58,1.29,0.92*00
$GPRMC,135514.000,A,4454.3781,N,00042.7421,W,0.15,188.12,090216,,,A*7B
$GPVTG,188.12,T,,M,0.15,N,0.28,K,A*31
$GPGGA,135515.000,4454.3781,N,00042.7421,W,1,7,1.29,16.8,M,49.6,M,,*7B
$GPGSA,A,3,30,28,20,13,07,05,15,,,,,,1.58,1.29,0.92*00
$GPGSV,2,1,08,05,64,202,37,13,62,307,40,30,52,055,38,28,45,121,39*7B
$GPGSV,2,2,08,20,44,298,38,15,24,291,33,07,21,054,39,49,,,35*47
$GPRMC,135515.000,A,4454.3781,N,00042.7421,W,0.41,188.12,090216,,,A*7B
$GPVTG,188.12,T,,M,0.41,N,0.77,K,A*3A
$GPGGA,135516.000,4454.3782,N,00042.7420,W,1,7,1.29,16.9,M,49.6,M,,*7B
$GPGSA,A,3,30,28,20,13,07,05,15,,,,,,1.58,1.29,0.92*00
$GPRMC,135516.000,A,4454.3782,N,00042.7420,W,0.19,188.12,090216,,,A*77
$GPVTG,188.12,T,,M,0.19,N,0.35,K,A*31
$GPGGA,135517.000,4454.3782,N,00042.7421,W,1,7,1.29,16.9,M,49.6,M,,*7B
$GPGSA,A,3,30,28,20,13,07,05,15,,,,,,1.58,1.29,0.92*00
$GPRMC,135517.000,A,4454.3782,N,00042.7421,W,0.27,188.12,090216,,,A*7A
$GPVTG,188.12,T,,M,0.27,N,0.49,K,A*37
$GPGGA,135518.000,4454.3783,N,00042.7420,W,1,7,1.29,16.9,M,49.6,M,,*74
$GPGSA,A,3,30,28,20,13,07,05,15,,,,,,1.58,1.29,0.92*00
$GPRMC,135518.000,A,4454.3783,N,00042.7420,W,1.19,35.12,090216,,,A*4E
$GPVTG,35.12,T,,M,1.19,N,2.21,K,A*00
$GPGGA,135519.000,4454.3788,N,00042.7415,W,1,7,1.29,17.1,M,49.6,M,,*71
$GPGSA,A,3,30,28,20,13,07,05,15,,,,,,1.58,1.29,0.92*00
$GPRMC,135519.000,A,4454.3788,N,00042.7415,W,1.44,37.90,090216,,,A*42
$GPVTG,37.90,T,,M,1.44,N,2.67,K,A*02
$GPGGA,135520.000,4454.3791,N,00042.7411,W,1,7,1.29,17.5,M,49.6,M,,*73
$GPGSA,A,3,30,28,20,13,07,05,15,,,,,,1.58,1.29,0.92*00
$GPGSV,2,1,08,05,64,202,42,13,62,307,41,30,52,055,38,28,45,121,39*78
$GPGSV,2,2,08,20,44,298,40,15,24,291,39,07,21,054,32,49,,,40*4B
$GPRMC,135520.000,A,4454.3791,N,00042.7411,W,1.42,40.29,090216,,,A*40
$GPVTG,40.29,T,,M,1.42,N,2.63,K,A*02
$GPGGA,135521.000,4454.3794,N,00042.7406,W,1,7,1.29,17.8,M,49.6,M,,*7C
$GPGSA,A,3,30,28,20,13,07,05,15,,,,,,1.58,1.29,0.92*00
$GPRMC,135521.000,A,4454.3794,N,00042.7406,W,1.43,41.49,090216,,,A*44
$GPVTG,41.49,T,,M,1.43,N,2.65,K,A*02
$GPGGA,135522.000,4454.3798,N,00042.7402,W,1,7,1.29,18.1,M,49.6,M,,*71
$GPGSA,A,3,30,28,20,13,07,05,15,,,,,,1.58,1.29,0.92*00
$GPRMC,135522.000,A,4454.3798,N,00042.7402,W,1.41,43.19,090216,,,A*4A
$GPVTG,43.19,T,,M,1.41,N,2.61,K,A*03
$GPGGA,135523.000,4454.3799,N,00042.7398,W,1,7,1.29,18.5,M,49.6,M,,*71
$GPGSA,A,3,30,28,20,13,07,05,15,,,,,,1.58,1.29,0.92*00
$GPRMC,135523.000,A,4454.3799,N,00042.7398,W,0.96,43.75,090216,,,A*4F
$GPVTG,43.75,T,,M,0.96,N,1.78,K,A*09
$GPGGA,135524.000,4454.3800,N,00042.7395,W,1,7,1.29,18.8,M,49.6,M,,*79
$GPGSA,A,3,30,28,20,13,07,05,15,,,,,,1.58,1.29,0.92*00
$GPRMC,135524.000,A,4454.3800,N,00042.7395,W,0.74,44.91,090216,,,A*4B
$GPVTG,44.91,T,,M,0.74,N,1.37,K,A*03
$GPGGA,135525.000,4454.3802,N,00042.7394,W,1,7,1.29,19.1,M,49.6,M,,*73
$GPGSA,A,3,30,28,20,13,07,05,15,,,,,,1.58,1.29,0.92*00
$GPGSV,2,1,08,05,64,202,41,13,62,307,39,30,52,055,38,28,45,121,39*74
$GPGSV,2,2,08,20,44,297,37,15,24,291,41,07,21,054,31,49,,,37*48
$GPRMC,135525.000,A,4454.3802,N,00042.7394,W,0.19,45.52,090216,,,A*4C
$GPVTG,45.52,T,,M,0.19,N,0.35,K,A*05
$GPGGA,135526.000,4454.3802,N,00042.7394,W,1,7,1.29,19.2,M,49.6,M,,*73
$GPGSA,A,3,30,28,20,13,07,05,15,,,,,,1.58,1.29,0.92*00
$GPRMC,135526.000,A,4454.3802,N,00042.7394,W,0.65,230.58,090216,,,A*7E
$GPVTG,230.58,T,,M,0.65,N,1.20,K,A*31
$GPGGA,135527.000,4454.3805,N,00042.7393,W,1,7,1.29,19.4,M,49.6,M,,*74
$GPGSA,A,3,30,28,20,13,07,05,15,,,,,,1.58,1.29,0.92*00
$GPRMC,135527.000,A,4454.3805,N,00042.7393,W,0.81,12.27,090216,,,A*4F
$GPVTG,12.27,T,,M,0.81,N,1.50,K,A*06
$GPGGA,135528.000,4454.3804,N,00042.7394,W,1,7,1.44,19.7,M,49.6,M,,*75
$GPGSA,A,3,30,28,20,13,07,05,15,,,,,,2.71,1.44,2.29*01
$GPRMC,135528.000,A,4454.3804,N,00042.7394,W,0.19,12.27,090216,,,A*47
$GPVTG,12.27,T,,M,0.19,N,0.36,K,A*06
$GPGGA,135529.000,4454.3806,N,00042.7393,W,1,7,1.29,20.0,M,49.6,M,,*77
$GPGSA,A,3,30,28,20,13,07,05,15,,,,,,1.58,1.29,0.92*00
$GPRMC,135529.000,A,4454.3806,N,00042.7393,W,0.43,12.27,090216,,,A*4C
$GPVTG,12.27,T,,M,0.43,N,0.80,K,A*04
$GPGGA,135530.000,4454.3806,N,00042.7394,W,1,7,1.44,20.3,M,49.6,M,,*70
$GPGSA,A,3,30,28,20,13,07,05,15,,,,,,2.71,1.44,2.29*01
$GPGSV,2,1,08,05,64,202,41,13,62,307,38,30,52,055,37,28,45,121,40*74
$GPGSV,2,2,08,20,44,297,37,15,24,291,39,07,21,054,32,49,,,34*47
$GPRMC,135530.000,A,4454.3806,N,00042.7394,W,0.10,12.27,090216,,,A*45
$GPVTG,12.27,T,,M,0.10,N,0.18,K,A*03
$GPGGA,135531.000,4454.3806,N,00042.7394,W,1,7,1.29,20.3,M,49.6,M,,*7A
$GPGSA,A,3,30,28,20,13,07,05,15,,,,,,1.58,1.29,0.92*00
$GPRMC,135531.000,A,4454.3806,N,00042.7394,W,0.14,12.27,090216,,,A*40
$GPVTG,12.27,T,,M,0.14,N,0.27,K,A*0B
$GPGGA,135532.000,4454.3807,N,00042.7394,W,1,7,1.44,20.3,M,49.6,M,,*73
$GPGSA,A,3,30,28,20,13,07,05,15,,,,,,2.71,1.44,2.29*01
$GPRMC,135532.000,A,4454.3807,N,00042.7394,W,0.17,12.27,090216,,,A*41
$GPVTG,12.27,T,,M,0.17,N,0.32,K,A*0C
$GPGGA,135533.000,4454.3806,N,00042.7394,W,1,7,1.29,20.3,M,49.6,M,,*78
$GPGSA,A,3,30,28,20,13,07,05,15,,,,,,1.58,1.29,0.92*00
$GPRMC,135533.000,A,4454.3806,N,00042.7394,W,0.15,12.27,090216,,,A*43
$GPVTG,12.27,T,,M,0.15,N,0.28,K,A*05
$GPGGA,135534.000,4454.3806,N,00042.7393,W,1,7,1.29,20.3,M,49.6,M,,*78
$GPGSA,A,3,30,28,20,13,07,05,15,,,,,,1.58,1.29,0.92*00
$GPRMC,135534.000,A,4454.3806,N,00042.7393,W,0.10,12.27,090216,,,A*46
$GPVTG,12.27,T,,M,0.10,N,0.18,K,A*03
$GPGGA,135535.000,4454.3806,N,00042.7393,W,1,7,1.29,20.3,M,49.6,M,,*79
$GPGSA,A,3,30,28,20,13,07,05,15,,,,,,1.58,1.29,0.92*00
$GPGSV,2,1,08,05,64,202,41,13,62,307,39,30,52,055,41,28,45,121,40*74
$GPGSV,2,2,08,20,44,297,38,15,24,291,38,07,21,054,35,49,,,36*4C
$GPRMC,135535.000,A,4454.3806,N,00042.7393,W,0.68,356.83,090216,,,A*75
$GPVTG,356.83,T,,M,0.68,N,1.26,K,A*3D
$GPGGA,135536.000,4454.3808,N,00042.7393,W,1,7,1.44,20.6,M,49.6,M,,*7A
$GPGSA,A,3,30,28,20,13,07,05,15,,,,,,2.71,1.44,2.29*01
$GPRMC,135536.000,A,4454.3808,N,00042.7393,W,0.96,24.58,090216,,,A*49
$GPVTG,24.58,T,,M,0.96,N,1.78,K,A*07
$GPGGA,135537.000,4454.3810,N,00042.7391,W,1,7,1.29,20.7,M,49.6,M,,*7A
$GPGSA,A,3,30,28,20,13,07,05,15,,,,,,1.58,1.29,0.92*00
$GPRMC,135537.000,A,4454.3810,N,00042.7391,W,1.34,22.65,090216,,,A*42
$GPVTG,22.65,T,,M,1.34,N,2.49,K,A*07
$GPGGA,135538.000,4454.3813,N,00042.7388,W,1,7,1.29,20.8,M,49.6,M,,*71
$GPGSA,A,3,30,28,20,13,07,05,15,,,,,,1.58,1.29,0.92*00
$GPRMC,135538.000,A,4454.3813,N,00042.7388,W,1.68,23.27,090216,,,A*48
$GPVTG,23.27,T,,M,1.68,N,3.12,K,A*06
$GPGGA,135539.000,4454.3817,N,00042.7386,W,1,7,1.29,20.8,M,49.6,M,,*7A
$GPGSA,A,3,30,28,20,13,07,05,15,,,,,,1.58,1.29,0.92*00
$GPRMC,135539.000,A,4454.3817,N,00042.7386,W,1.62,24.26,090216,,,A*4F
$GPVTG,24.26,T,,M,1.62,N,3.00,K,A*09
$GPGGA,135540.000,4454.3821,N,00042.7383,W,1,7,1.29,21.0,M,49.6,M,,*7D
$GPGSA,A,3,30,28,20,13,07,05,15,,,,,,1.58,1.29,0.92*00
$GPGSV,2,1,08,05,64,202,42,13,62,307,38,30,52,055,39,28,45,121,41*78
$GPGSV,2,2,08,20,44,297,36,15,24,291,35,07,21,054,32,49,,,37*49
$GPRMC,135540.000,A,4454.3821,N,00042.7383,W,1.83,26.00,090216,,,A*48
$GPVTG,26.00,T,,M,1.83,N,3.38,K,A*0B
$GPGGA,135541.000,4454.3825,N,00042.7379,W,1,7,1.29,21.0,M,49.6,M,,*7D
$GPGSA,A,3,30,28,20,13,07,05,15,,,,,,1.58,1.29,0.92*00
$GPRMC,135541.000,A,4454.3825,N,00042.7379,W,1.77,35.27,090216,,,A*44
$GPVTG,35.27,T,,M,1.77,N,3.29,K,A*07
$GPGGA,135542.000,4454.3826,N,00042.7376,W,1,7,1.29,21.2,M,49.6,M,,*70
$GPGSA,A,3,30,28,20,13,07,05,15,,,,,,1.58,1.29,0.92*00
$GPRMC,135542.000,A,4454.3826,N,00042.7376,W,0.77,67.94,090216,,,A*45
$GPVTG,67.94,T,,M,0.77,N,1.42,K,A*06
$GPGGA,135543.000,4454.3828,N,00042.7374,W,1,7,1.29,21.4,M,49.6,M,,*7B
$GPGSA,A,3,30,28,20,13,07,05,15,,,,,,1.58,1.29,0.92*00
$GPRMC,135543.000,A,4454.3828,N,00042.7374,W,0.78,49.18,090216,,,A*4F
$GPVTG,49.18,T,,M,0.78,N,1.44,K,A*07
$GPGGA,135544.000,4454.3829,N,00042.7372,W,1,7,1.29,21.5,M,49.6,M,,*7A
